city_id,city,county,state_id,population,density,latitude,longitude,zips,geometry
1.0,New York,Queens,NY,18908608,11226.2,40.6943,-73.9249,11229 11228 11226 11225 11224 11222 11221 11220 11385 10169 10168 10167 10165 10162 10282 10280 10040 10044 11109 11102 11103 11106 11104 11697 11694 11692 11693 11691 10271 10279 10278 10075 11249 10452 11451 10475 10474 10471 10470 10473 10472 11223 10103 11368 11369 11366 11367 11364 11365 11362 11363 11360 11361 10028 10029 10026 10027 10024 10025 10022 10023 10020 10021 11212 11213 11210 11211 11216 11217 11214 11215 11218 11219 10152 10153 10154 10310 10311 10312 10314 11439 11432 11433 11430 11436 11434 11435 10453 10451 10457 10456 10455 10454 10459 10458 10128 10004 10005 10006 10007 10001 10002 10003 10009 11238 11239 11230 11231 11232 11233 11234 11235 11236 11237 11379 11378 11375 11374 11377 11371 11370 11373 11372 10170 10171 10172 10173 10174 10177 11356 10039 10038 10035 10034 10037 10036 10031 10030 10033 10032 11201 11209 11203 11205 11204 11207 11206 11208 11411 11412 11413 11414 11415 11416 11417 11418 11419 11101 11105 11001 11005 11004 10065 10069 10199 10309 10308 10307 10306 10305 10304 10303 10302 10301 11429 11428 11421 11420 11423 11422 11424 11427 11426 10466 10467 10464 10465 10462 10463 10460 10461 10468 10469 10119 10115 10112 10110 10111 11359 11358 11357 11355 11354 10019 10018 10013 10012 10011 10010 10017 10016 10014 10008 10041 10043 10055 10060 10080 10081 10087 10090 10101 10102 10104 10105 10106 10107 10108 10109 10113 10114 10116 10117 10118 10120 10121 10122 10123 10124 10125 10126 10129 10130 10131 10132 10133 10138 10150 10151 10155 10156 10157 10158 10159 10160 10163 10164 10166 10175 10176 10178 10179 10185 10203 10211 10212 10213 10242 10249 10256 10258 10259 10260 10261 10265 10268 10269 10270 10272 10273 10274 10275 10276 10277 10281 10285 10286 10313 11120 11202 11241 11242 11243 11245 11247 11251 11252 11256 11351 11352 11380 11386 11405 11425 11431 11437 11499 11690 11695,POINT (-73.94343119226887 40.669903385553056)
2.0,Los Angeles,Los Angeles,CA,11922389,3202.3,34.1141,-118.4068,91367 90291 90293 90292 91316 91311 90035 90034 90037 90031 90039 90008 90004 90005 90006 90007 90001 90002 90003 91504 91040 90710 90089 91307 91344 91345 91340 91342 91343 90036 90247 91411 91436 91371 91608 91605 91604 91607 91606 91601 91602 90402 90068 90069 90062 90063 90061 90066 90067 90064 90065 90248 91326 91324 91325 90013 90012 90011 90010 90017 90016 90015 90014 91364 90028 90095 90094 91042 91352 91356 91406 91402 90041 90042 90043 90044 90045 90046 90047 90048 90049 90019 90018 91423 90210 91303 91304 91306 90079 90071 90077 90059 91331 91330 91335 90026 90027 90024 90025 90023 90020 90021 90029 90272 90732 90731 90230 91405 91403 91401 90033 90032 90038 90057 90052 90058 90744 90501 90502 90009 90030 90050 90051 90053 90054 90055 90060 90070 90072 90074 90075 90076 90078 90080 90081 90082 90083 90084 90086 90087 90088 90093 90099 90134 90189 90213 90294 90295 90733 90734 90748 91041 91043 91305 91308 91309 91313 91327 91328 91333 91334 91337 91346 91353 91357 91365 91392 91393 91394 91395 91396 91404 91407 91408 91409 91410 91412 91413 91416 91426 91470 91482 91495 91496 91499 91603 91609 91610 91614 91615 91616 91617 91618,POINT (-118.41211392839487 34.11210884430981)
3.0,Chicago,Cook,IL,8497759,4648.7,41.8375,-87.6866,60018 60649 60641 60640 60643 60642 60645 60644 60647 60646 60616 60617 60614 60615 60612 60613 60610 60611 60618 60619 60631 60827 60661 60660 60638 60639 60634 60636 60637 60630 60632 60633 60605 60604 60607 60606 60601 60603 60602 60609 60608 60106 60659 60652 60653 60656 60657 60654 60655 60651 60623 60622 60621 60620 60626 60625 60624 60629 60628 60707 60499 60664 60666 60668 60669 60670 60673 60674 60675 60677 60678 60680 60681 60684 60685 60686 60687 60688 60689 60690 60694 60695 60696 60699,POINT (-87.68501821557464 41.837082841091316)
4.0,Miami,Miami-Dade,FL,6080145,4728.2,25.784,-80.2101,33128 33129 33125 33126 33127 33149 33144 33145 33142 33139 33138 33137 33136 33135 33134 33133 33132 33131 33130 33150 33101 33109 33111 33151 33192 33195 33222 33231 33233 33238 33255 33299,POINT (-80.21061554370905 25.776043835020747)
5.0,Houston,Harris,TX,5970127,1382.2,29.786,-95.3885,77069 77068 77061 77060 77063 77062 77065 77064 77067 77066 77346 77571 77036 77037 77034 77035 77032 77033 77030 77031 77038 77449 77093 77044 77043 77042 77204 77598 77018 77019 77015 77016 77017 77010 77011 77012 77013 77094 77091 77092 77053 77345 77547 77080 77025 77024 77027 77026 77021 77020 77023 77022 77029 77028 77096 77090 77098 77099 77078 77079 77072 77073 77070 77071 77076 77077 77074 77075 77407 77047 77046 77045 77041 77040 77048 77336 77339 77338 77489 77003 77002 77007 77006 77005 77004 77009 77008 77450 77086 77089 77088 77083 77082 77081 77087 77085 77084 77054 77055 77056 77057 77058 77059 77396 77051 77506 77504 77001 77052 77201 77202 77203 77205 77206 77207 77208 77209 77210 77212 77213 77215 77216 77217 77218 77219 77220 77221 77222 77223 77225 77226 77227 77228 77229 77230 77231 77233 77234 77235 77236 77237 77241 77242 77243 77244 77245 77248 77249 77251 77252 77253 77254 77255 77256 77257 77259 77261 77262 77263 77266 77269 77270 77271 77272 77273 77274 77275 77282 77284 77287 77288 77289 77291 77292 77293 77297 77299 77315 77325 77411,POINT (-95.38694447527584 29.768927923193075)
6.0,Dallas,Dallas,TX,5830932,1478.3,32.7935,-96.7667,75098 75287 75230 75231 75236 75237 75235 75254 75251 75252 75253 75043 75032 75227 75238 75232 75233 75234 75089 75088 75087 75247 75244 75249 75248 75051 75166 75210 75211 75212 75214 75215 75216 75217 75218 75219 75390 75182 75229 75228 75220 75223 75225 75224 75226 75243 75241 75240 75246 75270 75207 75206 75205 75204 75203 75202 75201 75209 75208 75019 75221 75222 75242 75250 75260 75262 75263 75264 75266 75267 75277 75283 75284 75285 75301 75303 75312 75313 75315 75320 75336 75339 75342 75354 75355 75356 75357 75358 75359 75360 75367 75370 75371 75372 75373 75374 75376 75378 75379 75380 75382 75389 75392 75393 75394 75395 75397 75398,POINT (-96.76552705675984 32.79427960012591)
7.0,Philadelphia,Philadelphia,PA,5683533,4588.9,40.0077,-75.1339,19154 19151 19150 19153 19152 19102 19103 19106 19107 19104 19108 19109 19128 19129 19120 19121 19122 19123 19124 19125 19126 19127 19112 19111 19115 19114 19116 19119 19118 19148 19149 19146 19147 19144 19145 19142 19143 19140 19141 19139 19138 19137 19136 19135 19134 19133 19132 19131 19130 19019 19092 19093 19099 19101 19105 19110 19155 19160 19161 19162 19170 19171 19172 19173 19175 19176 19177 19178 19179 19181 19182 19183 19184 19185 19187 19188 19190 19191 19192 19193 19194 19195 19196 19197 19244 19255,POINT (-75.13429870461938 40.00692930608121)
8.0,Atlanta,Fulton,GA,5180179,1404.8,33.7628,-84.422,30334 30331 30332 30309 30308 30354 30327 30322 30326 30324 30319 30342 30305 30307 30306 30316 30317 30314 30315 30312 30313 30310 30311 30303 30363 30318 30301 30302 30304 30321 30325 30333 30343 30348 30353 30355 30357 30361 30368 30369 30370 30371 30375 30377 30392 30394 30398 31106 31107 31126 31139 31141 31193 31195 31196,POINT (-84.42252017725744 33.763006367264964)
9.0,Washington,District of Columbia,DC,5116378,4315.1,38.9047,-77.0163,20250 20010 20011 20012 20015 20520 20418 20415 20020 20024 20510 20515 20427 20422 20530 20542 20540 20240 20245 20204 20005 20004 20003 20002 20001 20009 20008 20317 20319 20390 20059 20057 20052 20388 20017 20018 20565 20566 20560 20591 20220 20064 20551 20230 20373 20260 20007 20006 20032 20036 20037 20431 20045 20408 20535 20016 20019 20013 20022 20026 20027 20029 20030 20033 20035 20038 20039 20040 20042 20043 20044 20047 20049 20050 20053 20055 20056 20058 20060 20061 20062 20063 20065 20066 20067 20068 20069 20070 20071 20073 20074 20075 20076 20077 20078 20080 20081 20082 20090 20091 20201 20202 20203 20206 20207 20208 20210 20211 20212 20213 20214 20215 20216 20217 20218 20219 20221 20222 20223 20224 20226 20227 20228 20229 20232 20233 20235 20237 20238 20239 20241 20242 20244 20251 20252 20254 20261 20262 20265 20266 20268 20270 20277 20289 20299 20301 20303 20306 20310 20314 20318 20330 20340 20350 20355 20370 20372 20374 20375 20376 20380 20389 20391 20392 20393 20394 20395 20398 20401 20402 20403 20404 20405 20406 20407 20410 20411 20412 20413 20414 20416 20417 20419 20420 20421 20423 20424 20425 20426 20428 20429 20433 20434 20435 20436 20437 20439 20440 20441 20442 20444 20447 20451 20453 20456 20460 20463 20468 20469 20470 20472 20500 20501 20502 20503 20504 20505 20506 20507 20508 20509 20511 20521 20522 20523 20524 20525 20526 20527 20528 20529 20531 20533 20534 20536 20537 20538 20539 20541 20543 20544 20546 20547 20548 20549 20552 20553 20554 20555 20557 20559 20570 20571 20572 20573 20575 20576 20577 20578 20579 20580 20581 20585 20586 20590 20593 20594 20597 20599 56901 56902 56904 56908 56915 56920 56933 56935 56944 56945 56950 56965 56967 56972 56998 56999,POINT (-77.01586557885688 38.905161663213995)
10.0,Boston,Suffolk,MA,4328315,5373.9,42.3188,-71.0852,02120 02121 02122 02124 02125 02126 02127 02128 02129 02210 02215 02467 02119 02118 02111 02110 02113 02115 02114 02116 02199 02134 02136 02135 02133 02132 02131 02130 02203 02205 02163 02108 02109 02112 02117 02123 02137 02196 02201 02206 02211 02212 02217 02222 02241 02283 02284 02293 02297 02298,POINT (-71.06246175020279 42.35115132290342)
11.0,Phoenix,Maricopa,AZ,4064275,1185.3,33.5722,-112.0892,85009 85003 85006 85007 85004 85083 85086 85087 85085 85331 85033 85306 85308 85020 85021 85022 85023 85024 85026 85027 85028 85029 85353 85019 85018 85013 85012 85015 85014 85016 85254 85008 85044 85045 85042 85043 85040 85041 85048 85037 85035 85034 85032 85031 85017 85304 85307 85266 85310 85054 85051 85050 85053 85001 85002 85005 85010 85011 85030 85036 85038 85046 85060 85061 85062 85063 85064 85065 85066 85067 85068 85069 85070 85071 85072 85073 85074 85075 85076 85078 85079 85080 85082,POINT (-112.07210404544286 33.542591858016586)
12.0,Detroit,Wayne,MI,3725908,1796.9,42.3834,-83.1024,48209 48208 48202 48201 48207 48206 48205 48204 48227 48238 48239 48234 48235 48233 48203 48243 48228 48226 48214 48215 48216 48217 48210 48211 48212 48213 48219 48224 48221 48223 48231 48232 48244 48255 48260 48264 48266 48267 48268 48269 48272 48275 48277 48278 48279 48288,POINT (-83.10212146358315 42.3831372092621)
13.0,Seattle,King,WA,3561397,3337.3,47.6211,-122.3244,98109 98108 98105 98104 98107 98106 98101 98103 98102 98154 98122 98121 98126 98125 98178 98174 98177 98144 98146 98195 98199 98118 98119 98116 98117 98115 98112 98164 98134 98136 98133 98111 98113 98114 98124 98127 98129 98139 98141 98145 98161 98165 98170 98175 98181 98185 98191 98194,POINT (-122.35156436805131 47.62162041478755)
14.0,San Francisco,San Francisco,CA,3364979,7153.8,37.7558,-122.4449,94130 94131 94132 94133 94134 94103 94102 94105 94104 94188 94158 94124 94123 94122 94121 94129 94118 94108 94107 94112 94110 94116 94117 94114 94115 94111 94109 94127 94119 94120 94125 94126 94137 94139 94140 94141 94142 94143 94144 94145 94146 94147 94151 94159 94160 94161 94163 94164 94172 94177,POINT (-122.43160168367893 37.77196393738337)
15.0,San Diego,San Diego,CA,3046560,1641.4,32.8313,-117.1222,92182 92109 92108 92107 92106 92103 92101 92111 92154 92110 92140 92161 92105 92104 92102 92071 92132 92130 92131 92136 92134 92139 92025 92027 92147 92145 92014 92093 92092 92119 92116 92117 92121 92120 92123 92122 92124 92127 92126 92129 92128 92037 92173 92113 92114 92115 92038 92039 92072 92112 92137 92138 92142 92143 92149 92150 92152 92153 92158 92159 92160 92163 92165 92166 92167 92168 92169 92170 92171 92172 92174 92175 92176 92177 92186 92187 92191 92192 92193 92195 92196 92197 92198 92199,POINT (-117.13663621992576 32.81499894649592)
16.0,Minneapolis,Hennepin,MN,2892569,3039.4,44.9635,-93.2678,55404 55409 55408 55407 55406 55405 55403 55402 55401 55454 55455 55430 55418 55419 55410 55411 55412 55413 55414 55415 55416 55417 55440 55458 55459 55467 55470 55472 55474 55478 55479 55480 55483 55484 55485 55486 55487 55488,POINT (-93.26707386547476 44.96181532174935)
17.0,Tampa,Hillsborough,FL,2861173,1292.7,27.9945,-82.4447,33637 33629 33621 33620 33609 33604 33606 33602 33619 33616 33613 33617 33614 33610 33611 33612 33605 33607 33603 33647 33608 33622 33623 33630 33631 33633 33646 33650 33655 33664 33672 33673 33674 33677 33679 33681 33684 33686 33689,POINT (-82.48193718611589 27.959298822413434)
18.0,Denver,Denver,CO,2687458,1782.8,39.762,-104.8758,80264 80266 80230 80231 80236 80237 80235 80238 80239 80123 80249 80247 80246 80290 80293 80294 80218 80210 80212 80216 80221 80220 80223 80222 80224 80227 80219 80211 80209 80207 80206 80205 80204 80202 80203 80208 80217 80243 80248 80250 80256 80257 80259 80261 80265 80271 80273 80274 80281 80291 80299,POINT (-104.87318696024707 39.76802195356802)
19.0,Riverside,Riverside,CA,2332836,1498.1,33.9381,-117.3949,92508 92503 92501 92506 92505 92504 92507 92521 92502 92513 92514 92516 92517 92522,POINT (-117.39824145203337 33.940452571098874)
20.0,Las Vegas,Clark,NV,2248047,1727.8,36.2333,-115.2654,89146 89149 89107 89106 89104 89102 89101 89108 89138 89130 89131 89134 89143 89145 89144 89110 89117 89129 89128 89124 88901 88905 89105 89114 89116 89125 89126 89127 89133 89137 89140 89151 89152 89153 89155 89163 89185 89195,POINT (-115.22363606113122 36.20571805982576)
21.0,Baltimore,Baltimore,MD,2196524,2824.8,39.3051,-76.6144,21218 21211 21210 21213 21212 21215 21214 21217 21216 21233 21231 21230 21239 21251 21209 21202 21206 21207 21205 21287 21223 21226 21201 21224 21225 21229 21203 21263 21264 21270 21273 21275 21278 21279 21281 21290 21297 21298,POINT (-76.61030537351466 39.30090701008436)
22.0,St. Louis,St. Louis,MO,2130881,1894.2,38.6359,-90.2451,63110 63111 63112 63113 63115 63116 63118 63120 63107 63106 63104 63103 63102 63101 63109 63108 63155 63139 63137 63143 63147 63150 63156 63157 63158 63160 63163 63164 63166 63169 63177 63178 63179 63180 63188 63197,POINT (-90.24441170439816 38.63610145546739)
23.0,Portland,Multnomah,OR,2095808,1871.9,45.5371,-122.65,97227 97221 97220 97229 97203 97202 97201 97206 97205 97204 97209 97208 97258 97266 97219 97213 97236 97232 97233 97230 97239 97218 97214 97215 97216 97217 97210 97211 97212 97207 97228 97238 97240 97242 97250 97251 97252 97253 97254 97256 97280 97282 97283 97286 97290 97291 97292 97293 97294,POINT (-122.65770286329521 45.5380903799721)
24.0,San Antonio,Bexar,TX,2058444,1110.2,29.4632,-98.5238,78112 78239 78259 78258 78252 78251 78250 78257 78256 78255 78254 78208 78201 78202 78203 78204 78205 78207 78245 78242 78248 78231 78230 78233 78232 78235 78234 78237 78238 78209 78109 78266 78264 78260 78219 78218 78217 78216 78215 78214 78213 78212 78211 78210 78244 78247 78240 78249 78073 78023 78222 78223 78220 78221 78226 78227 78224 78225 78228 78229 78206 78241 78246 78265 78268 78269 78270 78278 78279 78280 78283 78284 78285 78288 78289 78291 78292 78293 78294 78295 78296 78297 78298 78299,POINT (-98.50565040805999 29.457881789518897)
25.0,Sacramento,Sacramento,CA,1957738,2029.8,38.5677,-121.4685,95821 95820 95823 95838 95832 95833 95831 95834 95835 95811 95814 95815 95818 95819 95828 95822 95825 95824 95826 95816 95817 94203 94204 94205 94207 94208 94209 94211 94229 94230 94232 94234 94235 94236 94237 94239 94240 94244 94245 94247 94248 94249 94250 94252 94254 94256 94257 94258 94259 94261 94262 94263 94267 94268 94269 94271 94273 94274 94277 94278 94279 94280 94282 94283 94284 94285 94287 94288 94289 94290 94291 94293 94294 94295 94296 94297 94298 94299 95812 95813 95840 95851 95852 95853 95867 95894,POINT (-121.4684256223199 38.56675563202578)
26.0,Austin,Travis,TX,1905945,1137.8,30.3005,-97.7522,78749 78748 78741 78742 78745 78744 78747 78746 78717 78712 78719 78617 78739 78735 78736 78730 78731 78732 78733 78705 78704 78701 78703 78702 78758 78759 78752 78753 78750 78751 78756 78757 78754 78652 78723 78722 78721 78727 78726 78725 78724 78729 78728 73301 73344 78651 78708 78709 78710 78711 78713 78714 78715 78718 78720 78755 78760 78761 78762 78763 78765 78766 78767 78768 78772 78773 78774 78778 78779 78783 78799,POINT (-97.75080586757223 30.306086955411697)
27.0,Orlando,Orange,FL,1882705,1053.6,28.4773,-81.337,32829 32827 32824 32822 32804 32805 32806 32807 32801 32803 32808 32839 32835 32832 32819 32811 32812 32814 32802 32853 32854 32856 32861 32862 32872 32877 32885 32886 32891 32897,POINT (-81.37404017691709 28.50502897851395)
28.0,San Jose,Santa Clara,CA,1771413,2199.0,37.3012,-121.848,95119 95118 95128 95124 95125 95122 95008 95002 95117 95116 95111 95110 95113 95112 95126 95127 95120 95123 95148 95133 95132 95131 95130 95136 95134 95139 95138 95037 95013 95129 95121 95101 95103 95106 95109 95115 95141 95150 95151 95153 95154 95155 95156 95157 95158 95159 95160 95161 95164 95172 95173 95190 95191 95192 95193 95194 95196,POINT (-121.850847516431 37.30394208309841)
29.0,Pittsburgh,Allegheny,PA,1749091,2114.1,40.4397,-79.9763,15282 15216 15217 15214 15212 15213 15210 15211 15218 15219 15290 15232 15260 15233 15205 15204 15207 15206 15201 15203 15208 15234 15222 15221 15220 15226 15224 15120 15230 15240 15250 15251 15252 15253 15254 15255 15257 15258 15259 15261 15262 15264 15265 15267 15270 15272 15274 15279 15281 15286 15289 15295,POINT (-79.97647670039751 40.439276149395745)
30.0,Indianapolis,Marion,IN,1729849,939.8,39.7771,-86.1458,46234 46237 46218 46219 46217 46214 46260 46268 46226 46225 46183 46231 46235 46236 46239 46254 46250 46208 46201 46203 46202 46205 46204 46206 46256 46259 46227 46224 46222 46221 46220 46229 46228 46113 46278 46241 46240 46207 46209 46230 46242 46244 46247 46251 46253 46255 46262 46277 46282 46283 46285 46288 46298,POINT (-86.14618241907422 39.77644290374893)
31.0,Cincinnati,Hamilton,OH,1692702,1529.6,39.1413,-84.506,45267 45219 45213 45212 45211 45217 45216 45214 45233 45226 45227 45225 45223 45229 45224 45232 45204 45205 45206 45207 45202 45203 45208 45209 45239 45238 45237 45220 45230 45201 45221 45250 45254 45262 45263 45264 45268 45269 45270 45271 45273 45274 45275 45296 45298 45299 45999,POINT (-84.50589995953753 39.13986030489703)
32.0,Kansas City,Jackson,MO,1689556,616.6,39.1238,-94.5541,64161 64163 64164 64165 64167 64053 64118 64116 64151 64153 64155 64154 64157 64156 64158 64108 64109 64106 64102 64128 64129 64124 64125 64126 64127 64120 64123 64166 64119 64114 64117 64111 64110 64113 64112 64133 64146 64145 64149 64147 64105 64101 64139 64138 64132 64131 64130 64137 64136 64134 64121 64141 64148 64162 64170 64171 64179 64180 64184 64187 64188 64191 64195 64196 64197 64198 64199 64999,POINT (-94.552241645157 39.122316084592015)
33.0,Cleveland,Cuyahoga,OH,1680247,1861.9,41.4764,-81.6805,44135 44120 44119 44113 44112 44111 44110 44115 44114 44144 44128 44127 44104 44105 44106 44101 44102 44103 44108 44109 44181 44190 44191 44192 44193 44194 44195 44197 44198 44199,POINT (-81.67836304331432 41.479751433458944)
34.0,Columbus,Franklin,OH,1572546,1573.4,39.9862,-82.9855,43109 43026 43054 43220 43221 43222 43223 43224 43081 43228 43227 43213 43212 43215 43214 43217 43219 43218 43002 43004 43068 43085 43240 43229 43235 43232 43231 43230 43119 43110 43017 43016 43137 43211 43210 43202 43203 43201 43206 43207 43204 43205 43209 43236 43251 43260 43266 43268 43270 43271 43272 43279 43287 43291,POINT (-82.98728580747854 39.98899752100074)
35.0,Virginia Beach,Virginia Beach,VA,1443020,722.1,36.7335,-76.0435,23459 23451 23453 23452 23455 23457 23456 23454 23460 23461 23462 23464 23450 23458 23463 23465 23466 23467 23471 23479,POINT (-76.04332175175068 36.73950607919862)
36.0,Charlotte,Mecklenburg,NC,1427444,1077.1,35.2083,-80.8303,28269 28262 28105 28280 28282 28209 28208 28205 28204 28207 28206 28203 28202 28223 28227 28226 28278 28270 28273 28274 28277 28134 28216 28217 28214 28215 28212 28213 28210 28211 28244 28126 28130 28201 28218 28219 28220 28221 28222 28224 28228 28229 28230 28231 28232 28233 28234 28235 28237 28241 28242 28243 28246 28247 28253 28254 28255 28256 28258 28260 28263 28265 28266 28271 28272 28275 28281 28284 28285 28287 28288 28289 28290 28296 28297 28299,POINT (-80.83430749185226 35.19769339546927)
37.0,Milwaukee,Milwaukee,WI,1290940,2321.3,43.0642,-87.9675,53203 53202 53207 53206 53205 53204 53209 53208 53233 53218 53219 53214 53215 53216 53210 53211 53212 53213 53295 53225 53224 53221 53220 53223 53222 53228 53201 53237 53259 53263 53274 53278 53288 53290 53293,POINT (-87.96670960603883 43.06336256083557)
38.0,Providence,Providence,RI,1290271,3960.7,41.823,-71.4187,02903 02906 02907 02908 02904 02905 02909 02912 02918 02901 02902 02940,POINT (-71.41923326484687 41.822050176236175)
39.0,Jacksonville,Duval,FL,1288298,484.5,30.3322,-81.6749,32224 32225 32226 32227 32220 32221 32222 32223 32228 32219 32218 32214 32217 32216 32211 32210 32212 32246 32244 32233 32234 32202 32250 32254 32257 32256 32208 32209 32206 32207 32204 32205 32203 32258 32277 32099 32201 32229 32231 32232 32235 32236 32238 32239 32241 32245 32247 32255,POINT (-81.65750984129718 30.334789335448846)
40.0,Salt Lake City,Salt Lake,UT,1173879,693.4,40.7776,-111.9311,84116 84115 84114 84113 84112 84111 84128 84150 84180 84108 84101 84102 84103 84104 84105 84106 84138 84110 84122 84132 84133 84134 84139 84143 84145 84147 84148 84151 84152 84158 84199,POINT (-111.93069201626525 40.77721280221539)
41.0,Raleigh,Wake,NC,1163152,1201.4,35.8324,-78.6429,27617 27616 27615 27614 27613 27612 27610 27609 27601 27603 27604 27605 27606 27608 27607 27697 27695 27602 27619 27620 27622 27624 27626 27627 27628 27634 27636 27640 27650 27656 27658 27661 27668 27675 27676 27690 27698,POINT (-78.65847885586177 35.82210088735655)
42.0,Richmond,Richmond,VA,1073223,1454.1,37.5295,-77.4756,23222 23223 23298 23284 23220 23221 23226 23227 23224 23225 23230 23235 23234 23219 23173 23218 23232 23249 23260 23261 23269 23274 23276 23278 23282 23285 23286 23289 23290 23291 23292 23295,POINT (-77.47429065982281 37.53119683853202)
43.0,Memphis,Shelby,TN,1037998,830.2,35.1087,-89.9663,38120 38127 38126 38107 38106 38105 38104 38103 38109 38108 38152 38132 38141 38112 38114 38111 38113 38115 38116 38117 38118 38119 38018 38016 38133 38131 38134 38128 38122 38125 37501 37544 38088 38101 38124 38130 38136 38137 38145 38148 38150 38151 38157 38159 38161 38163 38166 38168 38173 38174 38175 38177 38181 38182 38184 38186 38187 38188 38190 38193 38194 38197,POINT (-90.0070814620969 35.10569045292988)
44.0,Oklahoma City,Oklahoma,OK,998806,428.6,35.4676,-97.5136,73099 73119 73118 73114 73117 73116 73111 73110 73112 73020 73012 73013 73142 73141 73145 73149 73169 73078 73108 73109 73106 73107 74857 73139 73132 73131 73135 73134 73008 73097 73084 73105 73162 73103 73054 73151 73150 73159 73064 73104 73102 73179 73173 73170 73049 73160 73165 73127 73120 73121 73122 73128 73129 73101 73113 73124 73125 73126 73136 73137 73143 73144 73146 73147 73148 73152 73154 73155 73157 73163 73164 73167 73172 73178 73184 73189 73190 73194 73195,POINT (-97.51380745916755 35.467110242607816)
45.0,Hartford,Capitol,CT,974684,2700.6,41.7661,-72.6834,06106 06105 06103 06120 06112 06114 06101 06102 06104 06115 06123 06126 06127 06132 06133 06134 06140 06141 06142 06143 06144 06145 06146 06147 06150 06151 06152 06154 06160 06167 06176 06183,POINT (-72.68340353295335 41.76579995566056)
46.0,Louisville,Jefferson,KY,963812,924.7,38.1663,-85.6485,40245 40242 40241 40218 40219 40214 40216 40211 40213 40059 40291 40299 40220 40223 40222 40229 40228 40023 40272 40207 40209 40258 40118 40018 40027 40225 40261 40268 40269 40281,POINT (-85.74111800322385 38.22482074487679)
47.0,Buffalo,Erie,NY,944589,2639.2,42.9018,-78.8487,14208 14209 14202 14203 14201 14206 14207 14204 14220 14222 14211 14210 14213 14212 14215 14214 14216 14205 14233 14240 14263 14264 14267 14269 14270 14272 14273 14276 14280,POINT (-78.85944117086805 42.889857972496046)
48.0,New Orleans,Orleans,LA,932759,874.7,30.0687,-89.9288,70139 70130 70131 70148 70114 70115 70116 70117 70112 70113 70118 70119 70129 70128 70125 70124 70127 70126 70122 70163 70142 70145 70146 70150 70151 70152 70153 70154 70156 70157 70158 70159 70160 70161 70162 70164 70165 70166 70167 70170 70172 70174 70175 70176 70177 70178 70179 70181 70182 70184 70185 70186 70187 70189 70190 70195,POINT (-89.93142254384205 30.06604630068122)
49.0,Fort Worth,Tarrant,TX,908469,1003.4,32.7817,-97.3474,76164 76040 76134 76135 76137 76131 76132 76133 76109 76108 76105 76104 76107 76106 76103 76102 76155 76053 76052 76123 76120 76244 76008 76179 76177 76036 76140 76262 76006 76118 76119 76116 76117 76114 76115 76112 76110 76111 76129 76127 76126 76101 76113 76121 76122 76124 76130 76147 76150 76161 76162 76163 76166 76190 76191 76193 76195 76196 76197 76198 76199,POINT (-97.33654354286601 32.75403118520526)
50.0,Bridgeport,Greater Bridgeport,CT,908251,3569.8,41.1918,-73.1954,06605 06604 06607 06606 06608 06610 06601 06602,POINT (-73.19576579736086 41.18641274886996)
51.0,Tucson,Pima,AZ,878320,859.3,32.1541,-110.8787,85705 85707 85706 85709 85710 85756 85723 85726 85724 85701 85708 85719 85748 85745 85747 85716 85714 85715 85712 85713 85711 85734 85730 85721 85702 85703 85717 85720 85722 85725 85731 85732 85738 85751 85754 85775,POINT (-110.8923614201592 32.19589280031451)
52.0,El Paso,El Paso,TX,865270,1010.2,31.8476,-106.43,79901 79902 79903 79904 79905 79906 79907 79930 79932 79935 79934 79936 79915 79912 79911 79835 79922 79920 79927 79924 79925 79910 79913 79914 79917 79923 79926 79931 79937 79940 79941 79942 79943 79944 79945 79946 79947 79948 79949 79950 79951 79952 79953 79954 79955 79958 79960 79961 79968 79976 79978 79980 79995 79996 79997 79998 79999 88540 88541 88542 88543 88544 88545 88546 88547 88548 88549 88550 88553 88554 88555 88556 88557 88558 88559 88560 88561 88562 88563 88565 88566 88567 88568 88569 88570 88571 88572 88573 88574 88575 88576 88577 88578 88579 88580 88581 88582 88583 88584 88585 88586 88588 88590 88595,POINT (-106.43809108880806 31.84935629498272)
53.0,Omaha,Douglas,NE,821345,1320.8,41.2627,-96.0529,68112 68114 68117 68116 68118 68182 68183 68105 68108 68178 68110 68122 68127 68124 68111 68022 68137 68135 68132 68144 68134 68131 68130 68102 68106 68107 68104 68164 68152 68154 68101 68103 68109 68119 68139 68145 68172 68175 68176 68179 68180 68197 68198,POINT (-96.01203906278393 41.26389862434641)
54.0,McAllen,Hidalgo,TX,797341,879.6,26.2252,-98.2467,78573 78504 78503 78501 78557 78502 78505,POINT (-98.23960662925809 26.215851148799366)
55.0,Birmingham,Jefferson,AL,782111,531.2,33.5279,-86.7971,35218 35214 35215 35217 35210 35211 35212 35213 35224 35221 35222 35203 35207 35206 35205 35204 35209 35208 35094 35254 35068 35061 35228 35234 35235 35233 35243 35242 35249 35201 35202 35220 35232 35237 35238 35246 35255 35259 35261 35270 35282 35283 35285 35287 35290 35291 35292 35294 35295 35298,POINT (-86.79921302383944 33.52785109378771)
56.0,Albuquerque,Bernalillo,NM,769986,1159.4,35.1054,-106.6465,87123 87112 87113 87110 87111 87114 87109 87108 87101 87102 87105 87104 87107 87106 87120 87119 87125 87131 87153 87154 87158 87181 87184 87187 87190 87191 87192 87194 87196 87197 87198 87199,POINT (-106.62521682530343 35.11726357061925)
57.0,Tulsa,Tulsa,OK,731743,801.7,36.1283,-95.9042,74137 74134 74132 74133 74130 74136 74135 74146 74145 74127 74126 74112 74114 74115 74119 74015 74106 74129 74128 74120 74171 74110 74116 74117 74107 74105 74103 74104 74108 74101 74121 74141 74147 74148 74149 74150 74152 74153 74155 74156 74158 74159 74169 74170 74172 74182 74186 74187 74192 74193,POINT (-95.91667758373222 36.12784504479621)
58.0,Fresno,Fresno,CA,725276,1795.8,36.783,-119.7939,93740 93741 93730 93650 93702 93703 93701 93706 93704 93705 93722 93728 93720 93721 93726 93727 93711 93710 93707 93708 93709 93714 93715 93716 93717 93718 93724 93729 93744 93745 93750 93755 93760 93761 93764 93765 93771 93772 93774 93775 93776 93777 93778 93779 93790 93791 93792 93793 93794 93844,POINT (-119.79385297460716 36.78054896723385)
59.0,Charleston,Charleston,SC,706884,496.5,32.8168,-79.9687,29414 29424 29425 29455 29405 29407 29401 29403 29409 29492 29412 29402 29413 29417 29422 29457,POINT (-79.99383690138626 32.7854267278874)
60.0,Rochester,Monroe,NY,699921,2279.2,43.168,-77.6162,14608 14609 14606 14607 14604 14605 14627 14620 14621 14619 14615 14614 14617 14611 14610 14613 14612 14642 14602 14603 14638 14639 14643 14644 14646 14647 14649 14650 14651 14653,POINT (-77.61556158678265 43.16871319207252)
61.0,Dayton,Montgomery,OH,668825,957.7,39.7805,-84.2003,45432 45469 45402 45403 45406 45404 45405 45409 45428 45420 45423 45424 45410 45414 45417 45419 45377 45401 45412 45422 45481 45490,POINT (-84.19729764321283 39.7791255037954)
62.0,Cape Coral,Lee,FL,654405,702.7,26.6443,-81.9957,33990 33993 33914 33991 33909 33904 33910 33915,POINT (-81.99699664289736 26.638025779999477)
63.0,Mission Viejo,Orange,CA,642211,2053.7,33.6096,-117.6551,92692 92691 92690,POINT (-117.65250952080609 33.61243979284131)
64.0,Colorado Springs,El Paso,CO,638194,909.2,38.8674,-104.7605,80951 80909 80904 80905 80906 80907 80903 80938 80910 80917 80916 80915 80914 80919 80918 80927 80924 80925 80922 80923 80920 80921 80929 80901 80932 80934 80935 80936 80937 80941 80942 80946 80947 80949 80950 80960 80962 80977 80995 80997,POINT (-104.76042888175162 38.86319416764037)
65.0,Baton Rouge,East Baton Rouge,LA,635671,1001.6,30.442,-91.1311,70836 70808 70809 70802 70803 70801 70806 70807 70805 70820 70825 70819 70813 70812 70815 70814 70816 70804 70821 70822 70823 70827 70831 70833 70835 70873 70874 70891 70892 70893 70894 70895 70898,POINT (-91.12614878513376 30.449157635058306)
66.0,Allentown,Lehigh,PA,627863,2753.3,40.5961,-75.4756,18104 18101 18103 18102 18109 18001 18105,POINT (-75.47729239347356 40.596430440207406)
67.0,Ogden,Weber,UT,622918,1206.8,41.2279,-111.9682,84404 84401 84403 84408 84244 84407 84409 84415,POINT (-111.96659262183367 41.22784427996425)
68.0,Provo,Utah,UT,619218,1051.2,40.2457,-111.6457,84606 84604 84602 84601 84603 84605,POINT (-111.64342864710028 40.247105186662694)
69.0,Knoxville,Knox,TN,615829,740.4,35.9692,-83.9496,37909 37902 37924 37920 37921 37922 37923 37929 37919 37918 37915 37914 37917 37916 37912 37901 37927 37928 37939 37950 37995 37996 37997,POINT (-83.94619527117307 35.97463224479191)
70.0,Grand Rapids,Kent,MI,609023,1706.1,42.9619,-85.6562,49546 49506 49505 49503 49507 49504 49508 49501 49502 49514 49515 49523 49555 49588 49599,POINT (-85.65575712580136 42.96127683249824)
71.0,Columbia,Richland,SC,604065,384.6,34.0378,-80.9036,29203 29207 29205 29208 29209 29225 29212 29210 29201 29206 29204 29202 29214 29215 29216 29217 29218 29220 29224 29226 29240 29250,POINT (-80.88615191552778 34.03938960403002)
72.0,Albany,Albany,NY,590694,1793.1,42.6664,-73.7987,12208 12209 12204 12206 12207 12202 12203 12205 12210 12226 12222 12201 12223 12228 12229 12230 12231 12232 12233 12234 12235 12236 12237 12238 12239 12240 12241 12242 12243 12244 12245 12246 12248 12250 12255 12257 12260 12261,POINT (-73.79858311238466 42.66582886553136)
73.0,Bakersfield,Kern,CA,571992,1024.5,35.3529,-119.0359,93306 93307 93304 93305 93301 93309 93314 93311 93313 93312 93302 93383 93384 93385 93387 93389 93390,POINT (-119.00548745648437 35.3576590057861)
74.0,New Haven,South Central Connecticut,CT,565572,2765.6,41.3113,-72.9246,06519 06511 06510 06513 06512 06515 06501 06502 06503 06505 06506 06507 06508 06509 06520 06521 06530 06531 06532 06533 06534 06535 06536 06540,POINT (-72.92361461470398 41.310197100652026)
75.0,Des Moines,Polk,IA,548926,935.0,41.5725,-93.6105,50309 50312 50314 50315 50316 50317 50310 50313 50319 50321 50320 50311 50301 50302 50303 50304 50305 50306 50307 50308 50318 50328 50329 50330 50331 50332 50335 50340 50380 50381 50391 50392 50393 50394 50395 50396 50936 50940 50947 50950 50980 50981 50982 50983,POINT (-93.617622752065 41.57672737902088)
76.0,Akron,Summit,OH,541945,1193.7,41.0798,-81.5219,44306 44307 44304 44305 44302 44303 44301 44308 44325 44320 44311 44310 44313 44312 44319 44314 44309 44315 44316 44317 44326 44328 44334 44396 44398,POINT (-81.52133770855694 41.08045579609521)
77.0,Palm Bay,Brevard,FL,534348,530.4,27.9631,-80.6593,32909 32908 32905 32907 32976 32902 32906 32910 32911,POINT (-80.65996964473882 27.985958556010228)
78.0,Concord,Contra Costa,CA,531175,1589.0,37.9722,-122.0016,94518 94519 94565 94521 94520 94522 94524 94527,POINT (-122.00094238512133 37.97317210553389)
79.0,Wichita,Sedgwick,KS,509003,935.3,37.6895,-97.3443,67230 67235 67260 67217 67216 67215 67214 67213 67212 67211 67210 67219 67218 67223 67220 67226 67202 67203 67204 67205 67206 67207 67208 67209 67201 67275 67276 67277 67278,POINT (-97.34299665540176 37.68736400765715)
80.0,Harrisburg,Dauphin,PA,498329,2376.3,40.2752,-76.8843,17101 17102 17103 17104 17120 17110 17105 17108 17121 17122 17123 17124 17125 17126 17127 17128 17129 17130,POINT (-76.88419869305397 40.276139045165465)
81.0,Mesa,Maricopa,AZ,497752,1364.4,33.4015,-111.7178,85208 85209 85201 85202 85203 85204 85205 85206 85207 85215 85213 85212 85210 85211 85214 85216 85274 85275 85277,POINT (-111.74103033581788 33.41778308038246)
82.0,Toledo,Lucas,OH,493302,1302.2,41.6638,-83.5827,43615 43614 43611 43613 43612 43607 43610 43606 43604 43605 43608 43609 43620 43623 43601 43603 43635 43652 43656 43657 43659 43660 43661 43666 43667 43681 43682 43697 43699,POINT (-83.58158377000055 41.663999652217434)
83.0,Worcester,Worcester,MA,486486,2106.9,42.2705,-71.8079,01608 01610 01609 01602 01603 01604 01605 01606 01607 01601 01613 01614 01615 01653 01655,POINT (-71.80843580252969 42.26972606749632)
84.0,Long Beach,Los Angeles,CA,466565,3555.1,33.7977,-118.167,90822 90804 90805 90806 90807 90802 90803 90808 90831 90814 90813 90810 90815 90840 90801 90809 90832 90833 90842 90844 90846 90847 90848 90853,POINT (-118.16072464540873 33.7889172076165)
85.0,Port St. Lucie,St. Lucie,FL,462047,654.8,27.2796,-80.3884,34986 34984 34983 34987 34952 34953 34985,POINT (-80.35429982909508 27.280122690515462)
86.0,Little Rock,Pulaski,AR,459409,648.3,34.7256,-92.3577,72211 72210 72212 72223 72227 72209 72202 72201 72206 72207 72204 72205 72103 72215 72217 72219 72222 72225 72231 72255 72260 72295,POINT (-92.35422898615833 34.722492205769825)
87.0,Reno,Washoe,NV,457702,921.8,39.5497,-119.8483,89521 89523 89439 89503 89502 89501 89506 89509 89508 89557 89519 89512 89505 89507 89533 89555 89595 89599,POINT (-119.82352439139233 39.53861056242109)
88.0,Spokane,Spokane,WA,456219,1267.4,47.6671,-117.433,99201 99203 99202 99205 99204 99207 99208 99258 99224 99223 99001 99212 99209 99210 99219 99220 99252 99256 99260,POINT (-117.41507118868542 47.67219151627182)
89.0,Madison,Dane,WI,451652,1253.8,43.0822,-89.393,53706 53704 53705 53703 53726 53792 53719 53718 53715 53714 53717 53716 53711 53713 53701 53702 53707 53708 53725 53774 53777 53782 53783 53784 53785 53786 53788 53790 53793 53794,POINT (-89.38763782395132 43.079795983315236)
90.0,Bonita Springs,Lee,FL,449527,532.8,26.3558,-81.7859,33931 34135 34134,POINT (-81.7848684399718 26.341288585497953)
91.0,Denton,Denton,TX,438492,557.3,33.2175,-97.1418,76207 76205 76203 76201 76208 76209 76226 76210 76202 76204 76206,POINT (-97.13123247740255 33.21432301736006)
92.0,Springfield,Hampden,MA,437752,1887.2,42.1155,-72.5395,01151 01144 01118 01119 01129 01128 01107 01105 01104 01103 01109 01108 01101 01102 01111 01115 01138 01139 01152 01199,POINT (-72.53857672833466 42.11512719202181)
93.0,Oakland,Alameda,CA,437548,3018.7,37.7904,-122.2166,94621 94705 94611 94610 94613 94612 94619 94618 94606 94607 94602 94603 94601 94609 94720 94605 94608 94604 94614 94615 94617 94620 94623 94624 94649 94659 94660 94661 94666,POINT (-122.29230870782663 37.81163005567143)
94.0,Augusta,Richmond,GA,437257,257.1,33.3645,-82.0708,30912 30815 30812 30907 30906 30904 30905 30901 30909 30805 30903 30914 30916 30917 30919 30999,POINT (-81.99482940620149 33.457487168003624)
95.0,Kissimmee,Osceola,FL,431618,1386.1,28.3041,-81.4169,34743 34746 34741 34744 34745,POINT (-81.41029823171264 28.303821589184437)
96.0,Winston-Salem,Forsyth,NC,427706,716.8,36.1029,-80.261,27110 27127 27040 27107 27106 27105 27104 27103 27101 27109 27102 27108 27111 27113 27114 27115 27116 27117 27120 27130 27150 27152 27155 27157 27198 27199,POINT (-80.26268221541359 36.102237420288525)
97.0,Stockton,San Joaquin,CA,413637,1966.8,37.9765,-121.3109,95219 95212 95210 95211 95209 95207 95203 95205 95204 95206 95202 95201 95267 95269 95296 95297,POINT (-121.30779899972325 37.969773540640006)
98.0,Syracuse,Onondaga,NY,410732,2261.5,43.0407,-76.1437,13210 13214 13290 13224 13207 13206 13205 13204 13203 13202 13208 13244 13201 13217 13218 13221 13235 13252 13261,POINT (-76.14371343375572 43.041125468543484)
99.0,Chattanooga,Hamilton,TN,406849,489.2,35.066,-85.2481,37415 37416 37410 37411 37419 37409 37421 37408 37403 37402 37407 37405 37406 37404 37343 37450 37351 37401 37414 37424,POINT (-85.25691278354836 35.06628208320287)
100.0,Lancaster,Lancaster,PA,402476,3100.3,40.042,-76.3012,17603 17602 17601 17608 17622 17699,POINT (-76.30092782970264 40.04194764437489)
101.0,Greenville,Greenville,SC,401443,903.5,34.8354,-82.3646,29614 29607 29605 29601 29609 29602 29603 29604 29612 29616,POINT (-82.37139801448363 34.83876784175586)
102.0,Durham,Durham,NC,399616,934.1,35.9792,-78.9022,27703 27705 27704 27707 27701 27708 27712 27713 27706 27710 27715 27717 27722,POINT (-78.91469943136177 35.98057713563319)
103.0,Pensacola,Escambia,FL,398813,913.4,30.4413,-87.1911,32503 32504 32501 32502 32513 32522 32524 32591,POINT (-87.18950693175455 30.444938438721906)
104.0,Fayetteville,Washington,AR,394650,651.9,36.0714,-94.1661,72704 72703 72701 72702,POINT (-94.1558880473063 36.07187933399473)
105.0,Arlington,Tarrant,TX,392304,1580.4,32.6998,-97.125,76011 76005 76001 76002 76006 76018 76013 76012 76010 76017 76016 76015 76014 76003 76004 76007 76019 76094 76096,POINT (-97.12779811444553 32.69463369705538)
106.0,Aurora,Arapahoe,CO,383496,911.2,39.7083,-104.7237,80247 80137 80045 80018 80019 80016 80014 80015 80012 80013 80010 80017 80011 80040 80041 80042 80044 80046 80047,POINT (-104.73029882253009 39.712254679749414)
107.0,Oxnard,Ventura,CA,369962,2954.3,34.1964,-119.1815,93035 93036 93030 93033 93031 93032 93034,POINT (-119.21463684471179 34.197430657678396)
108.0,Indio,Riverside,CA,369654,1030.2,33.7346,-116.2346,92241 92201 92203,POINT (-116.22948915696908 33.71982171416789)
109.0,Scranton,Lackawanna,PA,366334,1159.3,41.4044,-75.6649,18504 18509 18508 18510 18503 18505 18507 18515 18540,POINT (-75.66573746971741 41.40413009146476)
110.0,Victorville,San Bernardino,CA,364015,696.3,34.5277,-117.3536,92394 92395 92392 92393,POINT (-117.33247548757839 34.523044515509234)
111.0,Trenton,Mercer,NJ,362179,4573.4,40.2237,-74.7641,08638 08611 08618 08629 08609 08608 08601 08603 08604 08605 08607 08625 08645 08646 08647 08666 08695,POINT (-74.76382986016002 40.22350879647484)
112.0,Modesto,Stanislaus,CA,354183,1950.6,37.6375,-121.0028,95358 95356 95355 95354 95351 95350 95352 95353 95397,POINT (-120.9949682250143 37.659729040885665)
113.0,Honolulu,Honolulu,HI,351554,2239.1,21.3294,-157.846,96859 96858 96850 96819 96820 96822 96826 96813 96815 96814 96817 96816 96818 96848 96801 96802 96803 96804 96805 96806 96807 96808 96809 96810 96811 96812 96823 96828 96830 96836 96837 96838 96839 96840 96841 96843 96844 96846 96847 96849 96898,POINT (-157.804233 21.31725)
114.0,Huntsville,Madison,AL,349482,367.5,34.6981,-86.6412,35801 35803 35802 35805 35806 35741 35824 35763 35757 35756 35810 35811 35816 35896 35742 35762 35804 35807 35809 35814 35815 35893 35894 35895 35897 35899,POINT (-86.6277170447282 34.70713908056537)
115.0,Anaheim,Orange,CA,348204,2673.7,33.839,-117.8574,92808 92806 92807 92804 92805 92802 92801 92803 92809 92812 92815 92816 92817 92825 92850 92899,POINT (-117.87322231153954 33.83891551917422)
116.0,Greensboro,Guilford,NC,347130,868.2,36.0956,-79.8271,27411 27410 27412 27455 27408 27409 27403 27401 27406 27407 27405 27214 27402 27404 27413 27417 27420 27427 27429 27435 27438 27495 27497 27498 27499,POINT (-79.82664262808531 36.07903564038625)
117.0,Corpus Christi,Nueces,TX,337230,757.0,27.7254,-97.3767,78373 78408 78409 78406 78407 78404 78405 78402 78401 78419 78418 78415 78414 78417 78416 78411 78410 78413 78412 78403 78426 78427 78460 78463 78465 78466 78467 78468 78469 78472 78480,POINT (-97.29309514688995 27.7060383580301)
118.0,Fort Wayne,Allen,IN,337163,916.5,41.0888,-85.1436,46835 46818 46814 46815 46816 46825 46845 46803 46802 46807 46806 46805 46804 46809 46808 46801 46850 46851 46852 46853 46854 46855 46856 46857 46858 46859 46860 46861 46862 46863 46864 46865 46866 46867 46868 46869 46885 46895 46897,POINT (-85.13899464483983 41.073798225198075)
119.0,Fort Collins,Larimer,CO,335398,1128.8,40.5477,-105.0656,80528 80521 80526 80524 80525 80523 80527 80553,POINT (-105.0690148392175 40.55553250293118)
120.0,Jackson,Hinds,MS,335171,542.1,32.3157,-90.2125,39272 39206 39204 39203 39202 39201 39209 39269 39174 39210 39211 39212 39213 39216 39217 39060 39205 39207 39215 39225 39236 39250 39271 39282 39283 39284 39286 39289 39296 39298,POINT (-90.20767966634959 32.32064560240687)
121.0,Myrtle Beach,Horry,SC,332181,579.0,33.7094,-78.8844,29572 29577 29578,POINT (-78.89190610819526 33.69896049217801)
122.0,Fayetteville,Cumberland,NC,328804,543.0,35.085,-78.9772,28390 28304 28306 28307 28301 28303 28308 28305 28311 28310 28314 28302 28309,POINT (-78.89898811128472 35.071813673309684)
123.0,Antioch,Contra Costa,CA,327216,1518.8,37.9787,-121.796,94531 94509,POINT (-121.79995754546464 37.98865490581411)
124.0,Lansing,Ingham,MI,322561,1120.4,42.7142,-84.5601,48912 48933 48915 48911 48910 48906 48901 48909 48916 48919 48922 48924 48929 48930 48937 48951 48956,POINT (-84.55397484025244 42.70913519901418)
125.0,Mobile,Mobile,AL,320855,518.9,30.6782,-88.1162,36652 36606 36607 36604 36605 36602 36603 36608 36609 36688 36582 36615 36617 36611 36610 36619 36618 36695 36693 36601 36616 36628 36633 36640 36641 36644 36660 36670 36675 36689 36691,POINT (-88.08895880134882 30.677640331039292)
126.0,Youngstown,Mahoning,OH,319065,697.3,41.0993,-80.6463,44502 44503 44504 44505 44506 44507 44509 44511 44510 44555 44501,POINT (-80.64618609294115 41.09915814740917)
127.0,Savannah,Chatham,GA,316050,526.0,32.0286,-81.1821,31302 31409 31408 31401 31405 31404 31407 31406 31421 31419 31415 31403 31412 31416 31418 31420,POINT (-81.13148225614034 32.02456656952747)
128.0,Poughkeepsie,Dutchess,NY,314159,2362.2,41.695,-73.9211,12601 12603 12602,POINT (-73.9220542255648 41.695893538169585)
129.0,Santa Ana,Orange,CA,313818,4425.9,33.7367,-117.8819,92707 92701 92703 92705 92704 92706 92702 92712 92735 92799,POINT (-117.88300389075964 33.73641769421756)
130.0,Henderson,Clark,NV,311250,1129.1,36.0133,-115.0381,89044 89052 89054 89002 89074 89015 89014 89011 89012 89009 89077,POINT (-115.00319026495498 36.033645383923314)
131.0,St. Paul,Ramsey,MN,309751,2301.1,44.9478,-93.1039,55114 55117 55116 55119 55130 55101 55155 55102 55103 55106 55107 55104 55105 55108 55131 55133 55144 55145 55146 55164 55170,POINT (-93.10390505753031 44.947709674913995)
132.0,Ann Arbor,Washtenaw,MI,308983,1679.0,42.2759,-83.731,48103 48104 48105 48108 48109 48113,POINT (-83.73078156542255 42.27538817932644)
133.0,Newark,Essex,NJ,306247,4897.5,40.7245,-74.1725,07103 07102 07105 07104 07107 07106 07108 07112 07114 07101 07175 07188 07191 07192 07193 07195 07198 07199,POINT (-74.17283381126367 40.72420163080745)
134.0,Irvine,Orange,CA,297868,1752.9,33.6772,-117.7738,92617 92614 92612 92618 92697 92620 92602 92603 92604 92606 92616 92619 92650 92698,POINT (-117.7966948066816 33.66213495449045)
135.0,Santa Rosa,Sonoma,CA,296180,1627.1,38.4458,-122.7067,95409 95403 95401 95407 95405 95404 95406,POINT (-122.70189673602306 38.448511572535764)
136.0,Canton,Stark,OH,294047,1041.7,40.8078,-81.3676,44714 44710 44702 44703 44706 44707 44704 44705 44708 44709 44711 44750 44799,POINT (-81.37310042564812 40.81225833383699)
137.0,Asheville,Buncombe,NC,294013,792.0,35.5707,-82.5537,28806 28805 28804 28803 28801 28776 28810 28814 28815 28816,POINT (-82.548673161506 35.57423536118548)
138.0,Flint,Genesee,MI,293893,961.9,43.0236,-83.6921,48502 48504 48505 48506 48507 48503 48550 48551 48552 48553 48556 48557,POINT (-83.69275552445282 43.02287725086002)
139.0,Winter Haven,Polk,FL,293093,571.9,28.0118,-81.7014,33881 33880 33884 33883 33885 33888,POINT (-81.7216207766125 28.042559269526965)
140.0,Anchorage,Anchorage,AK,292545,66.2,61.1508,-149.1091,99518 99515 99517 99516 99513 99540 99530 99567 99587 99508 99506 99507 99504 99505 99502 99503 99501 99577 99509 99510 99511 99514 99520 99521 99522 99523 99524 99529 99599,POINT (-149.1886281166625 61.17781987023878)
141.0,Lincoln,Lancaster,NE,290508,1126.7,40.8099,-96.6784,68528 68524 68526 68520 68521 68522 68514 68516 68510 68512 68506 68507 68504 68505 68502 68503 68508 68588 68509 68529 68542 68544 68583,POINT (-96.68846465922886 40.81640129171937)
142.0,Concord,Cabarrus,NC,288783,618.7,35.3933,-80.6369,28025 28027 28026,POINT (-80.59410015590167 35.407473504611964)
143.0,Jersey City,Hudson,NJ,287146,7517.5,40.7184,-74.0686,07310 07311 07302 07307 07306 07305 07304 07097 07303 07308 07395 07399,POINT (-74.0645476760745 40.711402254292516)
144.0,Springfield,Greene,MO,286280,783.2,37.1943,-93.2916,65810 65897 65619 65801 65802 65803 65804 65806 65807 65809 65805 65808 65814 65817 65890 65898 65899,POINT (-93.2862863516948 37.19624859519066)
145.0,Shreveport,Caddo,LA,283536,676.1,32.4653,-93.7955,71129 71101 71103 71104 71105 71106 71107 71108 71109 71119 71118 71102 71120 71130 71133 71134 71135 71136 71138 71148 71149 71151 71152 71153 71154 71156 71161 71162 71163 71164 71165 71166,POINT (-93.79798794815218 32.4717033428289)
146.0,Plano,Collin,TX,282181,1519.8,33.0502,-96.7486,75093 75023 75025 75024 75074 75075 75026 75086,POINT (-96.74694026446797 33.046321601764305)
147.0,Davenport,Scott,IA,281333,615.7,41.5565,-90.6053,52802 52803 52801 52806 52807 52804 52805 52808 52809,POINT (-90.60436186934123 41.556781832207)
148.0,Lubbock,Lubbock,TX,280890,714.8,33.5657,-101.8879,79406 79423 79424 79416 79412 79410 79407 79414 79411 79404 79401 79403 79402 79415 79413 79408 79409 79430 79452 79453 79457 79464 79490 79491 79493 79499,POINT (-101.87581874819027 33.5759352470804)
149.0,Lakeland,Polk,FL,280346,640.7,28.0557,-81.9545,33813 33803 33801 33805 33815 33811 33802 33804 33806,POINT (-81.95981035366813 28.0414656213278)
150.0,South Bend,St. Joseph,IN,278061,945.4,41.6767,-86.2696,46616 46635 46628 46601 46613 46617 46619 46614 46615 46626 46634 46660 46680 46699,POINT (-86.2657061896647 41.67534778032822)
151.0,Chula Vista,San Diego,CA,274818,2137.7,32.6281,-117.0144,91911 91910 91913 91915 91914 91902 91908 91909 91912 91921,POINT (-117.04559341488944 32.62850471959354)
152.0,Rockford,Winnebago,IL,273237,885.9,42.2596,-89.064,61101 61114 61109 61108 61104 61107 61103 61102 61105 61106 61110 61125 61126,POINT (-89.06325462349126 42.2703200277168)
153.0,Reading,Berks,PA,272712,3693.6,40.34,-75.9267,19601 19604 19602 19611 19603 19612,POINT (-75.92607545022085 40.33909276423318)
154.0,Chandler,Maricopa,AZ,272439,1605.9,33.2825,-111.8514,85248 85249 85226 85224 85225 85286 85246,POINT (-111.86755129380623 33.29504938423312)
155.0,Eugene,Lane,OR,270990,1513.0,44.0564,-123.1174,97405 97404 97401 97403 97402 97440,POINT (-123.11337098219155 44.05284674589744)
156.0,Wilmington,New Hanover,NC,268625,871.1,34.2099,-77.8866,28409 28401 28403 28405 28412 28402 28406 28408,POINT (-77.91100780749666 34.21262020732215)
157.0,Santa Clarita,Los Angeles,CA,268273,1239.7,34.4175,-118.4964,91351 91321 91350 91355 91354 91387 91322 91382 91385 91386,POINT (-118.51109328307739 34.41340443569606)
158.0,Salem,Marion,OR,266420,1375.1,44.9233,-123.0244,97302 97301 97306 97304 97310 97317 97309 97311 97312 97314,POINT (-123.02326385291066 44.92434217573383)
159.0,Killeen,Bell,TX,265921,1060.8,31.0753,-97.7297,76541 76543 76542 76549 76540 76547,POINT (-97.71751431722382 31.098475761578545)
160.0,Round Lake Beach,Lake,IL,264451,2098.1,42.3791,-88.0811,60073,POINT (-88.0817783498779 42.37762133464768)
161.0,Columbus,Muscogee,GA,264282,364.5,32.51,-84.8771,31820 31829 31909 31904 31905 31906 31907 31901 31903 31808 31902 31908 31914 31917 31993 31995 31997 31998 31999,POINT (-84.87490255030646 32.510850755749225)
162.0,Gilbert,Maricopa,AZ,262249,1475.6,33.31,-111.7463,85233 85234 85236 85297 85296 85295 85298 85244 85299,POINT (-111.76488161575922 33.33208139395982)
163.0,Kennewick,Benton,WA,259995,1128.4,46.1978,-119.1732,99337 99336 99338,POINT (-119.17150411630142 46.20290780802278)
164.0,North Las Vegas,Clark,NV,259638,979.7,36.2883,-115.0888,89032 89031 89030 89086 89084 89085 89081 89115 89033 89087,POINT (-115.14505642253222 36.26779928408491)
165.0,Tallahassee,Leon,FL,258696,739.2,30.4551,-84.2527,32310 32312 32313 32399 32307 32306 32304 32303 32301 32309 32308 32311 32302 32314 32315 32316,POINT (-84.28129885818241 30.45720011796557)
166.0,St. Petersburg,Pinellas,FL,258245,1613.3,27.7931,-82.6652,33707 33702 33762 33713 33712 33711 33710 33716 33715 33714 33705 33703 33704 33701 33729 33731 33732 33733 33734 33742 33743 33747,POINT (-82.64194183252265 27.758305531210908)
167.0,Laredo,Webb,TX,254697,920.6,27.5625,-99.4874,78046 78045 78043 78040 78041 78042,POINT (-99.48691797549215 27.534595127025664)
168.0,Irving,Dallas,TX,254184,1465.2,32.8583,-96.9702,75063 75060 75038 75039 75062 75061 75014 75015 75016 75017 75059 75326 75368,POINT (-96.96962203246954 32.85781238662741)
169.0,Peoria,Peoria,IL,253467,913.6,40.752,-89.6154,61625 61615 61614 61605 61603 61604 61602 61606 61601 61613 61629 61630 61634 61636 61637 61638 61639 61643 61651 61652 61653 61654 61655 61656,POINT (-89.60932218613328 40.745001178576736)
170.0,Montgomery,Montgomery,AL,251158,485.5,32.3482,-86.2668,36112 36113 36110 36111 36116 36114 36115 36109 36130 36117 36101 36105 36104 36107 36106 36057 36108 36118 36120 36121 36123 36124 36125 36131 36132 36135 36140 36141 36142 36177 36191,POINT (-86.28425529389857 32.354538909798926)
171.0,York,York,PA,247176,3260.4,39.9651,-76.7315,17404 17401 17403 17405,POINT (-76.73149435174322 39.96459832448052)
172.0,Chesapeake,Chesapeake,VA,247172,282.0,36.6778,-76.3023,23325 23324 23323 23322 23321 23320 23326 23327 23328,POINT (-76.308433596676 36.67896178236764)
173.0,Glendale,Maricopa,AZ,245685,1437.1,33.5791,-112.2311,85301 85303 85302 85306 85309 85308 85355 85305 85304 85307 85310 85311 85312 85318,POINT (-112.20230003475994 33.58416809809146)
174.0,Nashua,Hillsborough,NH,245209,1135.2,42.7491,-71.491,03062 03063 03060 03064 03061,POINT (-71.49135892532831 42.74868866107832)
175.0,Garland,Dallas,TX,245075,1656.7,32.91,-96.6304,75043 75044 75041 75040 75042 75046 75047 75049,POINT (-96.62957181664403 32.910923995630284)
176.0,Scottsdale,Maricopa,AZ,238685,500.8,33.6872,-111.8651,85259 85258 85251 85250 85257 85255 85254 85266 85262 85260 85252 85261 85267 85271,POINT (-111.87117755084432 33.68603342564341)
177.0,Norfolk,Norfolk,VA,238556,1728.9,36.8945,-76.259,23509 23508 23507 23504 23503 23502 23505 23518 23510 23511 23513 23517 23551 23523 23501 23506 23514 23515 23519 23529 23541,POINT (-76.24460448831982 36.923347250800774)
178.0,Lafayette,Lafayette,LA,237565,844.5,30.2082,-92.0325,70508 70507 70506 70503 70501 70502 70504 70505 70509 70593 70596 70598,POINT (-92.02961986342076 30.215451041827155)
179.0,Arlington,Arlington,VA,235764,3501.5,38.8786,-77.1011,22209 22203 22202 22201 22207 22206 22205 22204 22214 22211 22213 22210 22212 22215 22216 22217 22219 22225 22226 22227 22230 22240 22241 22242 22243 22244 22245 22246 22350,POINT (-77.10160970775782 38.87883798782179)
180.0,Appleton,Outagamie,WI,233947,1139.6,44.278,-88.3892,54914 54915 54913 54911 54912 54919,POINT (-88.39638473714035 44.26631965087535)
181.0,Fremont,Alameda,CA,231502,1144.4,37.5265,-121.9843,94560 94536 94538 94539 94555 94537,POINT (-121.99819427249626 37.528443356876615)
182.0,Rock Hill,York,SC,228811,644.0,34.9415,-81.0241,29732 29733 29730 29731,POINT (-81.02824936547084 34.93944464026519)
183.0,Fargo,Cass,ND,228364,950.5,46.8651,-96.8292,58102 58104 58103 58105 58106 58107 58108 58109 58121 58122 58124 58125 58126,POINT (-96.81747174433384 46.876597826648634)
184.0,Gulfport,Harrison,MS,228022,503.0,30.4274,-89.0704,39501 39503 39507 39502 39505 39506,POINT (-89.06771889025669 30.386297535916924)
185.0,Bremerton,Kitsap,WA,226805,588.7,47.5436,-122.7121,98312 98314 98310 98337,POINT (-122.70325224244196 47.54871648591223)
186.0,Green Bay,Brown,WI,225633,909.1,44.5148,-87.9895,54304 54303 54302 54301 54311 54305 54306 54308,POINT (-87.98985349287148 44.521592648178476)
187.0,Hialeah,Miami-Dade,FL,224362,4013.9,25.8696,-80.3045,33014 33016 33010 33012 33013 33018,POINT (-80.2965448482317 25.862123959149322)
188.0,Deltona,Volusia,FL,221137,966.9,28.905,-81.2137,32725 32738 32739,POINT (-81.20856237929084 28.910160469052904)
189.0,Gainesville,Alachua,FL,220929,838.1,29.6804,-82.3459,32608 32609 32607 32610 32612 32653 32603 32601 32605 32604 32611 32614 32627 32635,POINT (-82.33610398270046 29.67439510399282)
190.0,San Bernardino,San Bernardino,CA,220821,1372.3,34.1416,-117.2943,92404 92369 92401 92407 92405 92408 92411 92410 92415 92346 92403 92406 92413 92418 92423 92427,POINT (-117.29317564704071 34.13976034452065)
191.0,Enterprise,Clark,NV,219566,1284.5,36.0091,-115.2278,89178 89183 89139 89141 89148 89113 89118 89119 89123,POINT (-115.2420218494752 36.02537246202143)
192.0,Roanoke,Roanoke,VA,218533,904.2,37.2785,-79.9581,24019 24014 24015 24016 24017 24011 24012 24013 24022 24001 24002 24003 24004 24005 24006 24007 24008 24009 24010 24023 24024 24025 24026 24027 24028 24029 24030 24031 24032 24033 24034 24035 24036 24037 24038 24040 24042 24043,POINT (-79.95815939782362 37.27853671172656)
193.0,Spring Valley,Clark,NV,217441,2364.6,36.0952,-115.2636,89147 89146 89103 89148 89113 89117 89118 89150 89164 89173,POINT (-115.24505293168353 36.10797022862694)
194.0,Tacoma,Pierce,WA,217332,1687.9,47.2431,-122.4531,98422 98403 98404 98405 98408 98409 98402 98406 98407 98466 98465 98416 98418 98444 98421 98401 98411 98412 98413 98415 98417 98419 98448 98471 98481 98490,POINT (-122.46100134503973 47.25182118359027)
195.0,Brownsville,Cameron,TX,215269,545.0,25.9975,-97.458,78521 78520 78526 78575 78578 78566 78522,POINT (-97.48231036921719 25.925457915876)
196.0,College Station,Brazos,TX,213177,877.5,30.5852,-96.2959,77843 77840 77845 77841 77842 77844 77881,POINT (-96.31259058005413 30.600700094680874)
197.0,Olympia,Thurston,WA,210877,1156.6,47.0417,-122.8959,98502 98501 98506 98504 98507 98508,POINT (-122.89501650608398 47.04173552819256)
198.0,Clarksville,Montgomery,TN,210551,634.0,36.5692,-87.3413,42223 37043 37042 37040 37041 37044,POINT (-87.3473130452501 36.561186848377645)
199.0,Yonkers,Westchester,NY,209730,4497.3,40.9466,-73.8673,10708 10703 10701 10707 10705 10704 10710 10702,POINT (-73.86709330118298 40.94713156030997)
200.0,Thousand Oaks,Ventura,CA,209570,889.3,34.1914,-118.8756,91320 91360 91361 91362 91319 91358 91359,POINT (-118.86848568834152 34.1927049952409)
201.0,Portland,Cumberland,ME,209491,1220.0,43.6773,-70.2715,04101 04102 04103 04108 04109 04019 04104 04112 04116 04122 04123 04124,POINT (-70.25691800818937 43.65773323313573)
202.0,Moreno Valley,Riverside,CA,208371,1568.0,33.9244,-117.2045,92551 92553 92555 92557 92552 92554 92556,POINT (-117.2111820664078 33.92624710255357)
203.0,Fontana,San Bernardino,CA,208087,1856.4,34.0968,-117.4599,92335 92336 92337 92331 92334 92402,POINT (-117.45822210441897 34.09774398046237)
204.0,Hickory,Catawba,NC,206008,532.8,35.741,-81.3223,28601 28602 28603,POINT (-81.32602406335974 35.73933223447068)
205.0,Amarillo,Potter,TX,205903,750.2,35.1984,-101.8316,79121 79109 79101 79102 79103 79104 79106 79107 79118 79111 79110 79114 79116 79117 79120 79166 79168 79172 79174 79178 79189,POINT (-101.81914532245334 35.20260288805039)
206.0,Sioux Falls,Minnehaha,SD,204484,906.1,43.5396,-96.7311,57108 57104 57105 57106 57107 57103 57197 57110 57117 57101 57109 57186 57193,POINT (-96.73042797314677 43.544176061722425)
207.0,Evansville,Vanderburgh,IN,203661,955.4,37.9881,-87.5341,47714 47715 47710 47711 47713 47708 47701 47702 47703 47704 47705 47706 47716 47719 47722 47724 47728 47730 47731 47732 47733 47734 47735 47736 47737 47740 47747 47750,POINT (-87.54331366757293 37.984192098169615)
208.0,Huntington,Cabell,WV,202754,1117.0,38.4109,-82.4345,25703 25702 25701 25705 25704 25755 25706 25708 25709 25710 25711 25712 25713 25714 25716 25717 25718 25719 25720 25721 25722 25723 25724 25725 25726 25727 25728 25729 25772 25773 25774 25775 25776 25777 25778,POINT (-82.43364274818451 38.41303320641064)
209.0,Waterbury,Naugatuck Valley,CT,202422,1538.4,41.5582,-73.0361,06708 06702 06704 06705 06706 06710 06701 06703 06720 06721 06722 06723 06724 06725 06726,POINT (-73.03698061195186 41.55849696848034)
210.0,Lorain,Lorain,OH,201808,1064.0,41.4409,-82.184,44052 44053 44055,POINT (-82.1832737736214 41.44159183321968)
211.0,Kalamazoo,Kalamazoo,MI,200838,1157.4,42.2749,-85.5882,49001 49006 49007 49008 49074 49005 49019,POINT (-85.58829268062682 42.27474065544011)
212.0,Galveston,Galveston,TX,200451,499.5,29.2484,-94.8913,77551 77550 77555 77554 77552 77553,POINT (-94.89226234275957 29.229575734730318)
213.0,Spartanburg,Spartanburg,SC,200000,724.2,34.9442,-81.9251,29302 29301 29307 29306 29304 29319,POINT (-81.92814490468244 34.945011052873085)
214.0,Santa Barbara,Santa Barbara,CA,199023,1764.4,34.4285,-119.7202,93105 93101 93103 93109 93102 93120 93121 93130 93140 93190,POINT (-119.72287368214928 34.4284974497056)
215.0,Huntington Beach,Orange,CA,198735,2843.9,33.696,-118.0018,92648 92649 92646 92647 90742 92605 92615,POINT (-118.00900858154856 33.69177326104515)
216.0,Glendale,Los Angeles,CA,196512,2489.4,34.1819,-118.2468,91210 91214 91201 91205 91208 91203 91202 91204 91207 91206 91046 91020 91209 91221 91222 91225 91226,POINT (-118.2541655378173 34.176726269774285)
217.0,Sunrise Manor,Clark,NV,196411,2249.4,36.1783,-115.0487,89104 89142 89110 89115 89156 89121 89122 89162 89180,POINT (-115.05081780778005 36.18737183215414)
218.0,Grand Prairie,Dallas,TX,195992,1043.6,32.6871,-97.0208,75052 75050 75051 75054 75104 75053 75265,POINT (-97.01693776949232 32.69237174177816)
219.0,Waco,McLennan,TX,195709,588.5,31.5599,-97.1882,76798 76710 76711 76712 76708 76701 76707 76706 76704 76702 76703 76714 76797 76799,POINT (-97.18348050555569 31.569115546448163)
220.0,Hagerstown,Washington,MD,195261,1323.0,39.6401,-77.7217,21742 21740 21741 21747 21749,POINT (-77.71899231670449 39.63804626028808)
221.0,Overland Park,Johnson,KS,195249,1002.1,38.887,-94.687,66214 66210 66211 66212 66213 66221 66223 66209 66202 66207 66204 66013 66251 66085 66224 66201 66225 66276 66282 66283,POINT (-94.68515202924604 38.91459888041526)
222.0,Nampa,Canyon,ID,193935,1097.9,43.5844,-116.5638,83651 83687 83686,POINT (-116.56492741471763 43.57985195619425)
223.0,Frisco,Collin,TX,193140,1087.3,33.156,-96.8216,75034 75036 75033 75035,POINT (-96.81323494118793 33.14462182908608)
224.0,Cedar Rapids,Linn,IA,191104,721.7,41.9662,-91.6783,52404 52405 52401 52411 52402 52403 52406 52407 52408 52409 52410 52497 52498 52499,POINT (-91.66975758161398 41.97296796469896)
225.0,Paradise,Clark,NV,189852,1728.7,36.0872,-115.1355,89103 89109 89158 89169 89118 89119 89121 89120 89123 89111 89132 89136 89154 89157 89159 89160 89170 89177 89193,POINT (-115.13443266537136 36.080797921944765)
226.0,McKinney,Collin,TX,189394,1092.0,33.2016,-96.667,75069 75072 75070 75071,POINT (-96.65514191699185 33.20105851341328)
227.0,Vancouver,Clark,WA,188331,1491.6,45.6366,-122.5967,98684 98664 98665 98660 98661 98662 98663 98682 98683 98687,POINT (-122.64447992181594 45.634039377585566)
228.0,Peoria,Maricopa,AZ,187733,411.7,33.7843,-112.2989,85373 85381 85383 85382 85324 85345 85380 85385,POINT (-112.24517739438035 33.688518506168826)
229.0,Ocala,Marion,FL,186840,509.4,29.178,-82.1511,34475 34474 34471 34470 34477 34478 34483,POINT (-82.13061311119648 29.187704210231047)
230.0,Erie,Erie,PA,185556,1928.0,42.1167,-80.0733,16546 16510 16508 16507 16502 16504 16503 16550 16501 16511 16512 16514 16522 16530 16534 16538 16541 16544 16553,POINT (-80.08637719877937 42.12590739514652)
231.0,Newport News,Newport News,VA,185069,1035.6,37.1051,-76.5185,23601 23603 23608 23604 23605 23606 23607 23602 23609 23612 23628 23630,POINT (-76.51383343315604 37.07599686186938)
232.0,Frederick,Frederick,MD,184991,1231.4,39.4337,-77.4141,21705 21702 21701 21709,POINT (-77.41661265129018 39.428288927963095)
233.0,Murfreesboro,Rutherford,TN,184763,898.9,35.849,-86.4121,37132 37130 37129 37128 37127 37131 37133,POINT (-86.39458420567217 35.85345651548652)
234.0,Aurora,Kane,IL,183447,1572.6,41.7638,-88.2902,60505 60506 60504 60502 60503 60519 60507 60568 60569 60572 60598 60599,POINT (-88.29311291785935 41.76766221129825)
235.0,Fort Lauderdale,Broward,FL,182247,2034.8,26.1412,-80.1464,33301 33304 33305 33306 33308 33309 33334 33316 33315 33312 33311 33320 33336 33338 33339 33340 33346 33348 33394,POINT (-80.13926633824643 26.142913230833955)
236.0,Danbury,Western Connecticut,CT,180143,791.8,41.4015,-73.4709,06810 06811 06813,POINT (-73.47109928419049 41.40222772315482)
237.0,Tempe,Maricopa,AZ,178862,1727.6,33.3881,-111.9319,85281 85282 85283 85284 85280 85285 85287 85288,POINT (-111.93133768934567 33.38839633818839)
238.0,Spring Hill,Hernando,FL,178833,739.1,28.4798,-82.53,34608 34609 34604 34606 34611,POINT (-82.56172385943339 28.482387148183577)
239.0,Gastonia,Gaston,NC,178220,590.3,35.2494,-81.1854,28054 28056 28052,POINT (-81.17130707277396 35.25288794954964)
240.0,Salinas,Monterey,CA,177410,2676.4,36.6883,-121.6317,93901 93905 93906 93902 93915,POINT (-121.63613733162067 36.684792457225264)
241.0,Fredericksburg,Fredericksburg,VA,176791,1035.5,38.2992,-77.4872,22401 22404 22412,POINT (-77.48683617907321 38.29938031241422)
242.0,Gainesville,Hall,GA,175569,481.0,34.2902,-83.8294,30501 30507 30504,POINT (-83.83487701931502 34.294174516641945)
243.0,Elk Grove,Sacramento,CA,175510,1590.7,38.4161,-121.3842,95624 95757 95758 95759,POINT (-121.36855010983847 38.40067761946211)
244.0,Ontario,San Bernardino,CA,175223,1353.5,34.0393,-117.6064,91762 91761 91764 91743 91758,POINT (-117.60669627267967 34.054423464428915)
245.0,Oceanside,San Diego,CA,174461,1632.3,33.2247,-117.3083,92058 92054 92057 92056 92049 92051 92052 92068,POINT (-117.31115642788795 33.22510959534427)
246.0,Rancho Cucamonga,San Bernardino,CA,173946,1444.2,34.1247,-117.5667,91730 91701 91737 91739 91729,POINT (-117.57112466766179 34.12384062939228)
247.0,Garden Grove,Orange,CA,172708,3714.2,33.7787,-117.9601,92843 92840 92841 92844 92845 92842 92846,POINT (-117.96026776064642 33.778766148309884)
248.0,Lancaster,Los Angeles,CA,171820,703.6,34.6935,-118.1753,93535 93534 93536 93539 93584,POINT (-118.17733216386371 34.693048983180006)
249.0,Cary,Wake,NC,171603,1105.4,35.7819,-78.8195,27560 27518 27519 27511 27513 27512,POINT (-78.79864834351325 35.78356212146212)
250.0,Hemet,Riverside,CA,170621,1173.1,33.7341,-116.9969,92545 92543 92546,POINT (-116.99861594639954 33.73162392341564)
251.0,Pembroke Pines,Broward,FL,170346,2012.5,26.0128,-80.3382,33029 33028 33025 33024 33026 33023 33027 33084,POINT (-80.34043046935342 26.010001663499086)
252.0,Panama City,Bay,FL,169810,376.8,30.1995,-85.6003,32401 32404 32405 32402 32412,POINT (-85.6737674284859 30.174001585258598)
253.0,Vallejo,Solano,CA,169541,1591.1,38.1125,-122.2342,94592 94591 94589 94590,POINT (-122.2652674503805 38.10738660851642)
254.0,Manchester,Hillsborough,NH,169097,1339.6,42.9848,-71.4447,03109 03104 03101 03103 03102 03105 03108 03111,POINT (-71.44441004202272 42.98368437104438)
255.0,Medford,Jackson,OR,168959,1182.7,42.3372,-122.854,97504 97501,POINT (-122.85424907866873 42.33964882513305)
256.0,Mauldin,Greenville,SC,168313,791.4,34.7821,-82.3032,29662 29607 29681,POINT (-82.30130563796041 34.787233789167516)
257.0,Palmdale,Los Angeles,CA,167987,611.5,34.5944,-118.1057,93591 93552 93551 93550 93590 93599,POINT (-118.08717578742484 34.605372950399314)
258.0,Santa Cruz,Santa Cruz,CA,167835,1900.6,36.9789,-122.0346,95065 95064 95060 95062 95061 95063 95067,POINT (-122.03689527163309 36.97320042607062)
259.0,Norwich,Southeastern Connecticut,CT,166885,550.6,41.5495,-72.0882,06380 06389 06360,POINT (-72.08746962411726 41.5502812422223)
260.0,Muskegon,Muskegon,MI,166847,1027.3,43.2281,-86.2562,49442 49443 49440 49441,POINT (-86.25559279469576 43.22756462568508)
261.0,Leesburg,Lake,FL,166200,260.8,28.7672,-81.8962,34748 34762 34736 34749 34789,POINT (-81.88236373218359 28.80879142114831)
262.0,High Point,Guilford,NC,164836,767.7,35.991,-79.9937,27265 27282 27235 27268 27262 27263 27260 27261 27264,POINT (-79.9979174747375 35.981436871197445)
263.0,Tuscaloosa,Tuscaloosa,AL,164414,619.1,33.2348,-87.5268,35475 35476 35405 35404 35406 35401 35487 35403 35407 35486,POINT (-87.5409850977892 33.23781775100828)
264.0,Visalia,Tulare,CA,163681,1419.3,36.3276,-119.3269,93277 93291 93292 93278 93279 93290,POINT (-119.32152276624586 36.32535055527389)
265.0,Marysville,Snohomish,WA,162664,1301.5,48.0809,-122.1561,98271 98270,POINT (-122.15595800800615 48.05933271413567)
266.0,Hayward,Alameda,CA,162254,1367.3,37.6328,-122.0766,94541 94542 94544 94545 94587 94540 94543 94557,POINT (-122.10567681747403 37.62760011940321)
267.0,Merced,Merced,CA,160638,1427.8,37.3057,-120.4779,95348 95340 95341 95343,POINT (-120.48538023713763 37.29621522902444)
268.0,Lafayette,Tippecanoe,IN,160543,932.2,40.3991,-86.8593,47909 47905 47904 47901 47902 47903,POINT (-86.87069393865643 40.41088557208454)
269.0,Springfield,Sangamon,IL,159671,723.9,39.7709,-89.654,62711 62712 62629 62702 62703 62701 62706 62707 62704 62705 62715 62716 62719 62722 62726 62736 62739 62756 62757 62761 62762 62763 62764 62765 62766 62767 62769 62776 62777 62781 62786 62796,POINT (-89.64475314874952 39.781483597797035)
270.0,Alexandria,Alexandria,VA,158185,4089.3,38.8185,-77.0861,22302 22301 22304 22305 22311 22314 20598 22320 22331 22332 22333 22334,POINT (-77.08587837600146 38.8211130179095)
271.0,Paterson,Passaic,NJ,157927,7247.6,40.9147,-74.1624,07522 07524 07514 07513 07505 07501 07504 07503 07502 07507 07509 07510 07533 07543 07544,POINT (-74.163001514246 40.91454872458034)
272.0,Corona,Riverside,CA,157844,1527.7,33.8616,-117.5649,92882 92880 92881 92879 92877 92878,POINT (-117.57057583122395 33.867915871854834)
273.0,Macon,Bibb,GA,156711,242.6,32.8065,-83.6974,31210 31052 31211 31213 31216 31217 31220 31207 31206 31204 31201 31202 31203 31205 31208 31209 31221 31294 31295 31296 31297,POINT (-83.65674196972746 32.836889205130625)
274.0,Binghamton,Broome,NY,156375,1762.2,42.1014,-75.9093,13904 13905 13901 13903,POINT (-75.9091581058738 42.10162569760076)
275.0,Kansas City,Wyandotte,KS,155745,482.1,39.1235,-94.7443,66101 66102 66103 66104 66105 66106 66109 66160 66112 66111 66115 66118 66110 66117 66119,POINT (-94.72727465634013 39.11840398075459)
276.0,Lakewood,Jefferson,CO,155608,1382.5,39.6977,-105.1172,80232 80235 80214 80215 80227 80226 80228 80201 80225,POINT (-105.11409720534881 39.69518740318805)
277.0,Sunnyvale,Santa Clara,CA,155550,2722.5,37.3836,-122.0255,94085 94086 94087 94089 94088,POINT (-122.02660271466765 37.3856908581669)
278.0,Odessa,Ector,TX,155039,845.0,31.8801,-102.3448,79762 79761 79763 79765 79768,POINT (-102.34876179941801 31.874558089851607)
279.0,New Bedford,Bristol,MA,153701,1936.4,41.6697,-70.9428,02740 02744 02745 02746 02741 02742,POINT (-70.93760022591852 41.661403735111016)
280.0,Hollywood,Broward,FL,152597,2162.1,26.0293,-80.1679,33024 33021 33023 33022 33020 33004 33316 33312 33019 33081 33082 33302,POINT (-80.16453033009502 26.03018448519155)
281.0,South Lyon,Oakland,MI,152132,1216.3,42.4614,-83.6526,48178,POINT (-83.6512305427636 42.46076835889217)
282.0,Pasadena,Harris,TX,151964,1342.9,29.6575,-95.1498,77058 77059 77586 77506 77507 77504 77505 77502 77503 77258 77501 77508,POINT (-95.15223104448373 29.660829468009585)
283.0,Pomona,Los Angeles,CA,151592,2546.5,34.0585,-117.7626,91768 91766 91767 91769,POINT (-117.76228972197163 34.05896066548698)
284.0,Escondido,San Diego,CA,151443,1565.7,33.1348,-117.0723,92029 92025 92026 92027 92030 92033 92046,POINT (-117.07213491369859 33.136484552836876)
285.0,Lake Charles,Calcasieu,LA,151109,678.7,30.201,-93.2111,70605 70607 70601 70609 70615 70629 70602 70606 70612 70616,POINT (-93.2030634465467 30.211056465652764)
286.0,Joliet,Will,IL,150323,882.7,41.5188,-88.1499,60421 60586 60432 60433 60431 60436 60435 60434,POINT (-88.1224959389483 41.52674777610148)
287.0,Champaign,Champaign,IL,150179,1483.7,40.1142,-88.2737,61822 61820 61821 61824 61825 61826,POINT (-88.26499962583335 40.11303153702038)
288.0,Mesquite,Dallas,TX,149848,1178.6,32.7602,-96.5865,75149 75126 75150 75181 75185 75187,POINT (-96.60007044414533 32.769129677602145)
289.0,Fairfield,Solano,CA,149635,1104.2,38.2583,-122.0335,94533 94534 94535,POINT (-122.04273253763618 38.25241366669686)
290.0,Elkhart,Elkhart,IN,149423,753.4,41.6916,-85.9627,46514 46517 46516 46515,POINT (-85.96879013788364 41.686849184365144)
291.0,Bellevue,King,WA,149365,1723.2,47.5951,-122.1535,98004 98005 98006 98007 98008 98009 98015,POINT (-122.15625147241722 47.60321478180782)
292.0,Naperville,DuPage,IL,149013,1471.0,41.748,-88.1659,60540 60563 60564 60565 60567,POINT (-88.1543655700188 41.762629811297316)
293.0,St. George,Washington,UT,148895,464.8,37.0758,-113.5752,84770 84790 84791,POINT (-113.57937570647275 37.07845305692529)
294.0,Topeka,Shawnee,KS,148185,794.5,39.0346,-95.6955,66621 66622 66609 66608 66607 66606 66605 66604 66603 66619 66611 66612 66614 66616 66601 66624 66625 66626 66629 66636 66647 66667 66675 66683 66699,POINT (-95.69225868659518 39.03790041916425)
295.0,Burlington,Alamance,NC,147415,721.6,36.076,-79.4685,27217 27215,POINT (-79.44697754144896 36.08453618149793)
296.0,Torrance,Los Angeles,CA,147156,2769.4,33.8346,-118.3416,90277 90501 90503 90505 90504 90507 90508 90509 90510,POINT (-118.34133063795109 33.83481589401109)
297.0,Warner Robins,Houston,GA,146790,811.4,32.5961,-83.6527,31088 31005 31093 31099,POINT (-83.63124437135772 32.61283978454667)
298.0,Roseville,Placer,CA,145687,1275.9,38.7703,-121.3196,95661 95747 95678,POINT (-121.29475673556335 38.759713156117755)
299.0,Santa Maria,Santa Barbara,CA,143647,1850.2,34.9333,-120.4431,93454 93455 93458,POINT (-120.43787793753667 34.937009378073974)
300.0,Athens,Clarke,GA,143173,418.2,33.9508,-83.3689,30602 30622 30601 30605 30606 30607 30609 30683 30603 30608 30612,POINT (-83.39358174115323 33.95541485691953)
301.0,Houma,Terrebonne,LA,143160,893.0,29.58,-90.7059,70363 70360 70361,POINT (-90.70700609240927 29.578947502360222)
302.0,Fullerton,Orange,CA,142964,2462.0,33.8841,-117.9279,92835 92833 92832 92831 92834 92836 92837 92838,POINT (-117.92894804156393 33.8848143286373)
303.0,Columbia,Boone,MO,142637,714.7,38.9472,-92.3268,65202 65203 65201 65215 65216 65211 65217 65218 65299,POINT (-92.32687945940386 38.954138744195696)
304.0,Surprise,Maricopa,AZ,141875,496.4,33.6815,-112.4515,85361 85379 85388 85387 85374 85378,POINT (-112.4691734413233 33.66414867983768)
305.0,Greeley,Weld,CO,140984,835.9,40.4152,-104.7706,80631 80634 80632 80633 80638 80639,POINT (-104.74439379938066 40.421304914094655)
306.0,Beaumont,Jefferson,TX,140930,539.6,30.0849,-94.1451,77708 77705 77706 77707 77701 77702 77703 77713 77704 77710 77720 77725 77726,POINT (-94.14464409195178 30.087979822243653)
307.0,Las Cruces,Doa Ana,NM,140915,551.7,32.3265,-106.7893,88012 88011 88005 88007 88001 87654 88006 88013,POINT (-106.75631513984739 32.33616005613383)
308.0,Metairie,Jefferson,LA,140590,2343.9,29.9977,-90.178,70002 70003 70001 70006 70005 70004 70009 70010 70011 70033 70055,POINT (-90.17747082431467 29.997804046216885)
309.0,Thornton,Adams,CO,140538,1486.8,39.9197,-104.9438,80260 80233 80241 80640 80023 80229 80602 80614,POINT (-104.95576254067768 39.89193536094262)
310.0,Olathe,Johnson,KS,140339,867.6,38.8833,-94.82,66062 66061 66051 66063,POINT (-94.8147385350856 38.88685682633219)
311.0,Midland,Midland,TX,140171,664.5,32.0243,-102.1147,79701 79706 79707 79705 79703 79702 79708 79711,POINT (-102.1005669213155 32.026613232802404)
312.0,West Valley City,Salt Lake,UT,139361,1501.9,40.6886,-112.0123,84119 84120 84128 84118 84125 84126 84127 84130 84131 84170,POINT (-112.00934255674412 40.690852385018054)
313.0,Orange,Orange,CA,139195,2093.9,33.8038,-117.8218,92868 92869 92866 92867 92865 92856 92857 92863 92864,POINT (-117.82488815919815 33.805266497503276)
314.0,Warren,Macomb,MI,138996,1561.1,42.4934,-83.027,48092 48093 48091 48089 48088 48397,POINT (-83.02811950908813 42.49303607890291)
315.0,Pasadena,Los Angeles,CA,138771,2333.6,34.1597,-118.139,91103 91101 91104 91125 91106 91107 91105 91102 91109 91110 91114 91115 91116 91117 91121 91123 91124 91126 91129 91182 91184 91188 91189 91199,POINT (-118.1396282770236 34.16070658362942)
316.0,Grand Junction,Mesa,CO,138416,620.6,39.0877,-108.5673,81503 81506 81507 81505 81504 81501 81502,POINT (-108.55357280598801 39.08728136562833)
317.0,Tyler,Smith,TX,138024,701.2,32.3184,-95.3062,75709 75702 75703 75701 75711 75710 75712 75713 75798 75799,POINT (-95.30382809645135 32.32854981838071)
318.0,Hampton,Hampton,VA,136748,1026.0,37.0551,-76.363,23665 23651 23681 23605 23661 23668 23663 23666 23667 23664 23669 23670,POINT (-76.29157385957457 37.05529541079986)
319.0,Bloomington,McLean,IL,136524,1116.1,40.4757,-88.9703,61701 61705 61704 61709 61710 61791,POINT (-88.97362462520226 40.47898590788085)
320.0,Elizabeth,Union,NJ,135772,4255.4,40.6658,-74.1913,07208 07202 07201 07206 07207,POINT (-74.19374607915958 40.66646972198092)
321.0,Yuma,Yuma,AZ,135389,304.1,32.5995,-114.5491,85365 85364 85369,POINT (-114.62094259212577 32.67749857298354)
322.0,Kent,King,WA,134890,1539.4,47.3887,-122.2128,98031 98030 98032 98042 98035 98064 98089,POINT (-122.23976528120403 47.3941223114294)
323.0,Stamford,Western Connecticut,CT,134820,1383.8,41.1039,-73.5585,06906 06907 06905 06902 06903 06901 06904 06910 06911 06912 06913 06914 06926 06927,POINT (-73.55225644860134 41.09682956904319)
324.0,Coeur d'Alene,Kootenai,ID,134503,1275.3,47.704,-116.7936,83815 83814 83816,POINT (-116.78583910601992 47.697693239178406)
325.0,Miramar,Broward,FL,134306,1797.2,25.9773,-80.3351,33029 33025 33023 33027,POINT (-80.33321939054319 25.977298857695363)
326.0,Sterling Heights,Macomb,MI,134062,1420.2,42.5809,-83.0305,48310 48313 48312 48314 48311,POINT (-83.03045953178074 42.580069377472824)
327.0,Coral Springs,Broward,FL,133693,2257.6,26.2702,-80.2591,33071 33076 33065 33067 33075 33077,POINT (-80.25881078176012 26.269275758781696)
328.0,Yuba City,Sutter,CA,133106,1751.5,39.1357,-121.6383,95991 95993,POINT (-121.62381956008932 39.135359120288165)
329.0,Yakima,Yakima,WA,132354,1336.7,46.5923,-120.5496,98901 98903 98902 98908 98904 98907,POINT (-120.5300849920402 46.5924817337503)
330.0,Racine,Racine,WI,132006,1938.7,42.7274,-87.8135,53405 53404 53406 53403 53402 53401 53407 53408,POINT (-87.80717446686656 42.72821963250559)
331.0,Johnson City,Washington,TN,131718,617.9,36.3406,-82.3806,37614 37615 37601 37604 37602 37605 37684,POINT (-82.36858647728741 36.33150588245372)
332.0,Billings,Yellowstone,MT,131519,986.3,45.7891,-108.5526,59106 59105 59102 59101 59104 59107 59108 59115 59116 59117,POINT (-108.5392349292416 45.791353088410474)
333.0,Carrollton,Dallas,TX,131388,1383.9,32.989,-96.8999,75007 75006 75010 75011,POINT (-96.8969918062273 32.98826372363173)
334.0,Iowa City,Johnson,IA,130736,1117.4,41.6559,-91.5303,52245 52246 52240 52242 52243 52244,POINT (-91.53529230226309 41.65826659565788)
335.0,Dover,Kent,DE,130186,635.2,39.161,-75.5202,19902 19901 19904 19905 19906,POINT (-75.51708678544249 39.158803382463276)
336.0,Bellingham,Whatcom,WA,129880,1239.8,48.7548,-122.469,98225 98226 98229 98228,POINT (-122.46814985006675 48.74387878277075)
337.0,Charleston,Kanawha,WV,129754,602.7,38.3484,-81.6322,25387 25305 25304 25303 25302 25301 25311 25314 25317 25321 25322 25323 25324 25325 25326 25327 25328 25329 25330 25331 25332 25333 25334 25335 25336 25337 25338 25339 25350 25364 25375 25392 25396,POINT (-81.63028467238155 38.35064730189606)
338.0,Lynchburg,Lynchburg,VA,128849,622.6,37.4003,-79.1909,24515 24504 24502 24503 24501 24505 24506 24513 24514,POINT (-79.19118130762236 37.40135925897734)
339.0,Santa Clara,Santa Clara,CA,127922,2702.4,37.3646,-121.968,95054 95050 95051 95053 95052 95055 95056,POINT (-121.96777553269688 37.36494117003326)
340.0,Greenville,Pitt,NC,127574,905.6,35.5943,-77.376,27834 27858 28590 27833 27835 27836,POINT (-77.37408520586519 35.59998719403693)
341.0,Simi Valley,Ventura,CA,127568,1178.5,34.2663,-118.749,93063 93065 93062 93094 93099,POINT (-118.75222427646956 34.26305323255795)
342.0,Fort Smith,Sebastian,AR,126452,536.1,35.3495,-94.3695,72908 72901 72904 72923 72916 72903 72906 72913 72914 72917 72918 72919,POINT (-94.38495088716837 35.367941208079785)
343.0,Norman,Cleveland,OK,125745,271.8,35.2335,-97.3471,73019 73026 73072 73070 73071 74857 73069 73068,POINT (-97.34429559112414 35.22551796884136)
344.0,Abilene,Taylor,TX,125474,454.2,32.4543,-99.7384,79607 79605 79699 79603 79602 79601 79606 79604 79608 79697 79698,POINT (-99.7393392842288 32.45462509246382)
345.0,Kenosha,Kenosha,WI,124297,1342.7,42.5865,-87.8773,53144 53140 53142 53143 53141,POINT (-87.85462464042175 42.58412006303807)
346.0,Lehigh Acres,Lee,FL,123751,515.5,26.612,-81.6388,33936 33973 33972 33971 33976 33974 33970,POINT (-81.63289486399752 26.60328762608227)
347.0,Seaside,Monterey,CA,123421,1411.9,36.6224,-121.8199,93955,POINT (-121.81964623322021 36.62135958466561)
348.0,Burlington,Chittenden,VT,123307,1675.2,44.4876,-73.2316,05405 05401 05408 05406,POINT (-73.22574936745534 44.48814178588324)
349.0,Arvada,Jefferson,CO,122903,1217.4,39.832,-105.151,80005 80004 80007 80003 80002 80403 80001 80006,POINT (-105.10728432620175 39.8211114572847)
350.0,Pearland,Brazoria,TX,122609,972.2,29.5581,-95.3218,77047 77089 77584 77581 77588,POINT (-95.27570673601775 29.55582843550382)
351.0,Waldorf,Charles,MD,122310,843.6,38.6085,-76.9194,20601 20603 20602 20675 20695 20604,POINT (-76.90422315779827 38.64201798393759)
352.0,Independence,Jackson,MO,122230,605.3,39.0871,-94.3501,64054 64055 64056 64057 64050 64052 64053 64015 64016 64051,POINT (-94.35364046806798 39.08934927356809)
353.0,Rochester,Olmsted,MN,121870,829.0,44.0154,-92.478,55902 55903 55901 55906 55904 55905,POINT (-92.4758760385011 44.01361374951353)
354.0,Logan,Cache,UT,121666,1124.7,41.7399,-111.8422,84321 84322 84341,POINT (-111.83590197708894 41.739970517748205)
355.0,Harlingen,Cameron,TX,121441,684.6,26.1916,-97.6977,78550 78552 78551 78553,POINT (-97.68654295862744 26.19565267888308)
356.0,Pueblo,Pueblo,CO,120380,765.4,38.2701,-104.6114,81004 81005 81003 81001 81008 81002 81010 81011 81012,POINT (-104.62152909758908 38.273552584285724)
357.0,Temple,Bell,TX,120240,432.7,31.1068,-97.3891,76501 76502 76504 76508 76533,POINT (-97.3637408479906 31.097836755976033)
358.0,Berkeley,Alameda,CA,119607,4426.9,37.8722,-122.276,94708 94707 94705 94704 94703 94702 94709 94710 94720 94701 94712,POINT (-122.28245870047462 37.86566072549656)
359.0,East Los Angeles,Los Angeles,CA,118964,6162.8,34.0326,-118.1691,90063 90022 90023,POINT (-118.16946652668507 34.03266221516756)
360.0,Duluth,St. Louis,MN,118574,467.2,46.7756,-92.1393,55803 55802 55807 55806 55805 55804 55808 55810 55811 55812 55815 55816,POINT (-92.11816895167954 46.780956933602056)
361.0,Clovis,Fresno,CA,118488,1769.6,36.8278,-119.683,93611 93612 93619 93613 93747,POINT (-119.69699760969377 36.81958287907761)
362.0,Boulder,Boulder,CO,118090,1510.8,40.0248,-105.2524,80310 80304 80305 80302 80303 80301 80309 80314,POINT (-105.25156995129903 40.02686655818124)
363.0,Round Rock,Williamson,TX,117735,1203.6,30.527,-97.6642,78681 78664 78665 78682 78683,POINT (-97.6723528396058 30.517676202293785)
364.0,Port Arthur,Jefferson,TX,117348,284.9,29.8554,-93.9264,77655 77640 77642 77641 77643,POINT (-93.93479914344441 29.826882890408726)
365.0,Redding,Shasta,CA,117163,605.4,40.5698,-122.365,96002 96003 96001,POINT (-122.36603668133193 40.57227317701674)
366.0,Monroe,Ouachita,LA,116927,626.3,32.5185,-92.0774,71212 71209 71203 71202 71201 71207 71210 71213 71217,POINT (-92.08505462539013 32.51179379348038)
367.0,Cambridge,Middlesex,MA,116892,7055.3,42.3759,-71.1185,02142 02140 02141 02139 02138 02238 02477,POINT (-71.11819713355546 42.37589688648705)
368.0,Utica,Oneida,NY,116766,1494.4,43.0962,-75.2261,13501 13502 13503 13504 13505 13599,POINT (-75.2279883360228 43.096919759925676)
369.0,St. Cloud,Stearns,MN,116649,657.7,45.534,-94.1718,56304 56301 56303 56302 56372 56393 56395 56396,POINT (-94.17062650267668 45.55391620005461)
370.0,Mandeville,St. Tammany,LA,116649,654.5,30.3751,-90.0904,70448 70471 70470,POINT (-90.08223512183633 30.37031377602428)
371.0,Clearwater,Pinellas,FL,116616,1722.0,27.979,-82.7623,33759 33755 33756 33763 33761 33767 33764 33765 33757 33758 33766 33769,POINT (-82.76537279249554 27.979697531098388)
372.0,West Jordan,Salt Lake,UT,116045,1386.4,40.6024,-112.0008,84088 84081 84084,POINT (-111.99534531074993 40.59983850783886)
373.0,Richardson,Dallas,TX,115904,1566.6,32.9716,-96.7093,75081 75080 75082 75045 75083 75085,POINT (-96.71012124683618 32.97287336190357)
374.0,West Palm Beach,Palm Beach,FL,115877,830.6,26.7469,-80.132,33411 33412 33417 33409 33407 33405 33401 33402 33422,POINT (-80.12599157351987 26.74804135678914)
375.0,The Woodlands,Montgomery,TX,115716,1032.5,30.1738,-95.5134,77381 77384 77380 77382 77389 77393,POINT (-95.48950680334049 30.157889718582208)
376.0,Richmond,Contra Costa,CA,115677,1486.7,37.9477,-122.3389,94530 94801 94803 94804 94805 94806 94802 94807 94808 94850,POINT (-122.34838216693437 37.92323960448353)
377.0,Westminster,Adams,CO,115535,1412.3,39.8837,-105.0624,80030 80031 80234 80005 80003 80021 80020 80035,POINT (-105.05139220137963 39.881485692843974)
378.0,Saginaw,Saginaw,MI,115442,1011.7,43.4199,-83.9501,48602 48607 48601 48606 48663,POINT (-83.949494436073 43.41957546774615)
379.0,Brandon,Hillsborough,FL,115330,1343.9,27.9367,-82.3,33510 33594 33619 33511 33584 33508 33509 33595,POINT (-82.29132671274635 27.929751239098795)
380.0,Kailua,Honolulu,HI,115264,2007.1,21.392,-157.7396,96734,POINT (-155.964037 19.664237)
381.0,Kailua,Honolulu,HI,115264,2007.1,21.392,-157.7396,96734,POINT (-157.738455 21.4016)
382.0,Meridian,Ada,ID,115227,1222.6,43.6116,-116.3977,83646 83642 83680,POINT (-116.40063383361066 43.61101532231543)
383.0,Carlsbad,San Diego,CA,114858,1172.8,33.1246,-117.2834,92008 92009 92011 92010 92013 92018,POINT (-117.28673519477186 33.12386525334595)
384.0,Lowell,Middlesex,MA,114804,3256.8,42.6389,-71.3217,01851 01850 01852 01854 01853,POINT (-71.32164629183613 42.638802303424505)
385.0,North Charleston,Charleston,SC,114542,569.7,32.9067,-80.0722,29420 29456 29485 29404 29405 29406 29418 29416 29419 29423,POINT (-80.04122528222446 32.90549109135564)
386.0,Downey,Los Angeles,CA,114293,3556.1,33.9379,-118.1311,90242 90240 90241 90239,POINT (-118.130801030458 33.93816431494258)
387.0,Gresham,Multnomah,OR,114164,1874.2,45.5021,-122.4413,97030 97233 97230 97080,POINT (-122.43942594178579 45.50369230454605)
388.0,Elgin,Kane,IL,114156,1159.1,42.0383,-88.324,60120 60123 60124 60121 60122,POINT (-88.28803068675967 42.0395894455327)
389.0,Broken Arrow,Tulsa,OK,112751,691.4,36.038,-95.7806,74014 74011 74012 74013,POINT (-95.78744375576643 36.03761963966977)
390.0,Waterloo,Black Hawk,IA,112333,424.3,42.4918,-92.3522,50707 50703 50702 50701,POINT (-92.35124350267252 42.49163622370897)
391.0,Costa Mesa,Orange,CA,112148,2739.5,33.6667,-117.9135,92626 92627 92628,POINT (-117.91353988478254 33.666869746001446)
392.0,Leominster,Worcester,MA,111856,582.4,42.5209,-71.7717,01453,POINT (-71.77167943353577 42.51916564596218)
393.0,Longview,Gregg,TX,111855,566.9,32.5193,-94.7622,75602 75601 75605 75604 75606 75608 75615 75660,POINT (-94.76249193145134 32.51788920530332)
394.0,League City,Galveston,TX,111847,840.8,29.4874,-95.1087,77573 77598 77511 77539 77565 77574 77592,POINT (-95.10767029909594 29.485843319781576)
395.0,Jacksonville,Onslow,NC,111830,579.3,34.7289,-77.3941,28546 28547 28544 28542 28540 28543 28541 28545,POINT (-77.40383065359785 34.76451305128293)
396.0,Bend,Deschutes,OR,111774,1081.5,44.0563,-121.3095,97702 97703 97701 97708,POINT (-121.31219098781662 44.06588655479183)
397.0,Pompano Beach,Broward,FL,111423,1787.6,26.2428,-80.1312,33060 33062 33064 33069 33061 33072 33074 33097,POINT (-80.13262897469606 26.237226728403446)
398.0,Sioux City,Woodbury,IA,111361,561.9,42.4959,-96.3901,51106 51104 51105 51103 51101 51108 51109 51111,POINT (-96.39425671719833 42.5001452004491)
399.0,Murrieta,Riverside,CA,111096,1279.0,33.5719,-117.1909,92563 92562,POINT (-117.21046852695717 33.559698297664305)
400.0,Gilroy,Santa Clara,CA,110720,1373.0,37.0046,-121.5854,95020,POINT (-121.57914338986798 37.01004833971338)
401.0,Everett,Snohomish,WA,110438,1269.0,47.9525,-122.1669,98207 98204 98203 98201 98208 98206 98213,POINT (-122.19983537793317 47.96307527275048)
402.0,Sugar Land,Fort Bend,TX,110272,1052.1,29.5935,-95.6358,77498 77478 77479 77487 77496,POINT (-95.61640660826872 29.61901116345747)
403.0,El Monte,Los Angeles,CA,110144,4449.7,34.0739,-118.0291,91731 91733 91732 91734 91735,POINT (-118.02869707772405 34.07480938728527)
404.0,Lewisville,Denton,TX,110077,1045.4,33.0454,-96.9815,75067 75065 75056 75057 75077 75029,POINT (-96.98320272035278 33.04178496282043)
405.0,Chico,Butte,CA,110001,1164.4,39.7578,-121.8161,95973 95926 95928 95929 95927 95976,POINT (-121.80801961565427 39.753686447411404)
406.0,Eau Claire,Eau Claire,WI,109491,803.8,44.8197,-91.4948,54703 54701 54702,POINT (-91.492434696335 44.821110136740124)
407.0,West Covina,Los Angeles,CA,109396,2633.9,34.0555,-117.9113,91792 91791 91790 91793,POINT (-117.91074493637036 34.054260272253224)
408.0,Temecula,Riverside,CA,109376,1135.9,33.4928,-117.1315,92590 92591 92592 92589 92593,POINT (-117.12966207162108 33.502710929166525)
409.0,Idaho Falls,Bonneville,ID,108544,952.5,43.4871,-112.0362,83401 83402 83404 83415,POINT (-112.03575738101051 43.49285174900053)
410.0,Bloomington,Monroe,IN,108387,1329.6,39.1637,-86.5257,47405 47408 47401 47403 47404 47406 47407,POINT (-86.52151960930426 39.16659726859534)
411.0,Inglewood,Los Angeles,CA,108206,4607.6,33.9566,-118.3444,90305 90304 90303 90302 90301 90306 90307 90308 90309 90311 90312,POINT (-118.34455757250474 33.955863684361326)
412.0,Dearborn,Wayne,MI,107985,1719.6,42.3127,-83.213,48128 48120 48126 48124 48121 48123,POINT (-83.21340901010898 42.31137174603158)
413.0,Burbank,Los Angeles,CA,107364,2393.9,34.1879,-118.3235,91506 91504 91505 91502 91501 91503 91507 91508 91510 91521 91522 91523 91526,POINT (-118.32662425655644 34.19132235189878)
414.0,Burbank,Los Angeles,CA,107364,2393.9,34.1879,-118.3235,91506 91504 91505 91502 91501 91503 91507 91508 91510 91521 91522 91523 91526,POINT (-121.93281463420551 37.31634510313982)
415.0,Sparks,Washoe,NV,106900,1131.1,39.5736,-119.7161,89436 89434 89431 89432 89435,POINT (-119.737952391902 39.54415517160632)
416.0,Sandy Springs,Fulton,GA,106605,1093.0,33.9366,-84.3703,30350 30327 30328 30342 30358 31150 31156,POINT (-84.3686254325307 33.937401716348454)
417.0,El Cajon,San Diego,CA,106043,2821.8,32.8017,-116.9604,92020 92021 92019,POINT (-116.96170927752573 32.802500686009274)
418.0,Hillsboro,Washington,OR,105909,1582.3,45.5273,-122.936,97006 97123 97124 97129,POINT (-122.94026951216274 45.527517563857266)
419.0,Auburn,Lee,AL,105386,464.0,32.6087,-85.4903,36849 36832 36830 36831,POINT (-85.48027105570816 32.59303488174649)
420.0,Renton,King,WA,105313,1727.3,47.4784,-122.1918,98059 98058 98057 98056 98055,POINT (-122.19784839623829 47.481705197820695)
421.0,Holland,Ottawa,MI,105134,788.4,42.7677,-86.0984,49423 49422,POINT (-86.10227150763224 42.77172983326228)
422.0,San Mateo,San Mateo,CA,105087,3343.8,37.5522,-122.3121,94404 94401 94402 94403 94497,POINT (-122.31309946404149 37.561202972044455)
423.0,Columbia,Howard,MD,105086,1270.6,39.2004,-76.859,21044 21045 21046 21029 20588 21150,POINT (-76.85767725095032 39.20310686144769)
424.0,Daly City,San Mateo,CA,104914,5303.1,37.6862,-122.4685,94015 94014 94016 94017,POINT (-122.46851587381714 37.68693318502372)
425.0,Davie,Broward,FL,104782,1159.4,26.0789,-80.287,33324 33325 33331 33330 33328 33314 33355,POINT (-80.28901796770349 26.082515845531802)
426.0,Brockton,Plymouth,MA,104216,1886.2,42.0821,-71.0242,02301 02302 02303 02304 02305,POINT (-71.02498202735408 42.08123313680754)
427.0,Rialto,San Bernardino,CA,103799,1663.5,34.1175,-117.3892,92316 92376 92377,POINT (-117.38790275971353 34.11357786556597)
428.0,Charlottesville,Charlottesville,VA,103760,1756.1,38.0375,-78.4855,22908 22901 22902 22903 22904 22905 22906 22909,POINT (-78.48547898621443 38.03758891104547)
429.0,Norwalk,Los Angeles,CA,103330,4109.9,33.9069,-118.0829,90650 90651 90652,POINT (-118.08339881647801 33.906914397980344)
430.0,Highlands Ranch,Douglas,CO,103238,1642.5,39.5419,-104.9708,80129 80126 80130 80163,POINT (-104.9694384951975 39.55395022840617)
431.0,Allen,Collin,TX,102778,1503.1,33.1088,-96.6735,75002 75013,POINT (-96.66975140848197 33.10980168895407)
432.0,Wichita Falls,Wichita,TX,102563,547.9,33.9072,-98.5291,76309 76308 76310 76311 76306 76305 76302 76301 76307,POINT (-98.51661238262963 33.89803065982048)
433.0,Rio Rancho,Sandoval,NM,102403,382.5,35.2873,-106.6982,87121 87124 87144 87174,POINT (-106.66102519986431 35.27346235985989)
434.0,Vacaville,Solano,CA,102256,1321.8,38.3587,-121.9673,95687 95688,POINT (-121.96713009663883 38.36217747716643)
435.0,Longmont,Boulder,CO,101642,1323.5,40.1686,-105.1005,80501 80503 80504,POINT (-105.11223794318369 40.17279174943167)
436.0,Kingsport,Sullivan,TN,101323,403.8,36.5224,-82.5454,37665 37664 37663 37660 37662 37669,POINT (-82.55673258519506 36.52965100712786)
437.0,Lee's Summit,Jackson,MO,100772,608.9,38.9171,-94.3816,64086 64082 64064 64063 64081 64002,POINT (-94.38374407885988 38.91635042384957)
438.0,Quincy,Norfolk,MA,100544,2342.4,42.2506,-71.0187,02169 02171 02170 02269,POINT (-71.00651491601238 42.261414243372435)
439.0,Lynn,Essex,MA,100233,3603.7,42.4781,-70.9664,01905 01904 01902 01901 01903 01910,POINT (-70.9620423059085 42.47426308878571)
440.0,San Angelo,Tom Green,TX,100057,639.8,31.4424,-100.4504,76905 76904 76901 76903 76909 76908 76886 76906,POINT (-100.45279523794818 31.44621146736599)
441.0,Federal Way,King,WA,99792,1725.5,47.3091,-122.3358,98023 98003 98063 98093,POINT (-122.34203879560745 47.3116919546138)
442.0,Bowling Green,Warren,KY,99669,672.6,36.9716,-86.4378,42104 42103 42101 42102,POINT (-86.44123283054425 36.97374502389467)
443.0,Bismarck,Burleigh,ND,99433,816.2,46.8143,-100.7694,58505 58504 58501 58503 58507,POINT (-100.76770332337105 46.80546049542289)
444.0,Hesperia,San Bernardino,CA,99287,527.4,34.3975,-117.3147,92345 92344 92340,POINT (-117.30327943989462 34.41907491007058)
445.0,Riverview,Hillsborough,FL,98928,827.1,27.8227,-82.3023,33579 33578 33569 33568,POINT (-82.3165220697977 27.87081500047315)
446.0,Lafayette,Boulder,CO,98889,1268.8,39.9946,-105.0998,80026,POINT (-105.09852740653874 39.99428486037682)
447.0,Edinburg,Hidalgo,TX,98759,852.6,26.3196,-98.1597,78539 78542 78541,POINT (-98.16516180769749 26.296148692113388)
448.0,Vista,San Diego,CA,98651,2031.9,33.1896,-117.2386,92084 92083 92081 92085,POINT (-117.23908471043633 33.18882017587731)
449.0,Carmel,Hamilton,IN,98137,771.9,39.965,-86.146,46290 46032 46033 46280 46074 46082,POINT (-86.10949449747325 39.969356904788626)
450.0,St. Augustine,St. Johns,FL,97703,567.5,29.8976,-81.31,32080 32095 32084,POINT (-81.31056259453314 29.892164667564256)
451.0,Beaverton,Washington,OR,97466,1918.5,45.4779,-122.8168,97225 97003 97005 97007 97006 97008 97075 97076 97077 97079,POINT (-122.81780937140152 45.475339822506456)
452.0,Portsmouth,Portsmouth,VA,97454,1129.9,36.8468,-76.354,23709 23708 23704 23707 23701 23703 23702 23705,POINT (-76.3560754972385 36.85568212217017)
453.0,Fishers,Hamilton,IN,97154,1042.8,39.9588,-85.9659,46038 46040 46256 46037 46085,POINT (-86.02356035023764 39.95417036745317)
454.0,Orem,Utah,UT,96734,2006.2,40.2981,-111.6994,84097 84057 84058 84059,POINT (-111.69884897010058 40.29818640406941)
455.0,Sandy,Salt Lake,UT,96272,1535.7,40.5709,-111.8506,84092 84093 84094 84070 84090 84091,POINT (-111.85510701964519 40.569632414266465)
456.0,Sunrise,Broward,FL,96220,2293.5,26.1547,-80.2997,33322 33323 33326 33325 33351 33313 33307 33345,POINT (-80.2976900377155 26.152063232888224)
457.0,Portsmouth,Rockingham,NH,96146,539.9,43.058,-70.7826,03801 03802 03803 03804,POINT (-70.78151090798912 43.056938582720385)
458.0,Compton,Los Angeles,CA,96083,3699.6,33.893,-118.2274,90220 90221 90222 90223,POINT (-118.22743170620913 33.89256605310163)
459.0,Lawrence,Douglas,KS,96061,1071.1,38.9597,-95.2642,66045 66044 66047 66046 66049,POINT (-95.255655442474 38.96285222827905)
460.0,Arden-Arcade,Sacramento,CA,95909,2329.6,38.6017,-121.3845,95821 95864 95825 95860 95865 95866,POINT (-121.37775432876134 38.60100308143017)
461.0,Slidell,St. Tammany,LA,95528,732.6,30.2887,-89.7828,70460 70458 70459 70469,POINT (-89.7777373521435 30.28122741802728)
462.0,Boca Raton,Palm Beach,FL,95347,1261.7,26.3752,-80.108,33496 33487 33486 33434 33432 33433 33431 33427 33429 33481 33499,POINT (-80.10638973498682 26.37305470376789)
463.0,Livonia,Wayne,MI,95294,1030.8,42.3972,-83.3733,48152 48150 48154 48151 48153,POINT (-83.37245665358118 42.39818614430717)
464.0,Carson,Los Angeles,CA,95104,1960.4,33.8374,-118.2559,90248 90810 90747 90746 90745 90224 90749 90895,POINT (-118.25879401130533 33.83620012884578)
465.0,Williamsburg,Williamsburg,VA,94892,660.9,37.2693,-76.7076,23185 23188 23187,POINT (-76.70653426041504 37.270154609480954)
466.0,La Crosse,La Crosse,WI,94627,933.9,43.8241,-91.2268,54603 54601 54602,POINT (-91.2340360998504 43.82691616164307)
467.0,San Marcos,San Diego,CA,94313,1482.3,33.135,-117.1743,92078 92096 92069 92079,POINT (-117.17397635380509 33.136672241057155)
468.0,Prescott Valley,Yavapai,AZ,93923,439.0,34.598,-112.3185,86327 86315 86314 86312,POINT (-112.32213817549439 34.60825830542503)
469.0,Middletown,Butler,OH,93870,740.2,39.5033,-84.3659,45044 45005 45042,POINT (-84.37352103727673 39.50575799468155)
470.0,Goodyear,Maricopa,AZ,93651,189.0,33.2614,-112.3622,85139 85338 85326 85395,POINT (-112.41207936990736 33.3469972792535)
471.0,Edmond,Oklahoma,OK,93522,427.6,35.6689,-97.416,73013 73007 73003 73034,POINT (-97.41348600950107 35.672054954865374)
472.0,Fall River,Bristol,MA,93339,1088.0,41.7136,-71.1015,02724 02723 02720 02721 02717 02790 02747 02722,POINT (-71.10456320972564 41.71470238727436)
473.0,South Gate,Los Angeles,CA,93308,4977.9,33.9447,-118.1926,90280,POINT (-118.19283422312353 33.943964825997185)
474.0,Suffolk,Suffolk,VA,93268,90.2,36.6953,-76.6398,23433 23432 23437 23436 23435 23434 23438 23439,POINT (-76.63782231792587 36.703443263429)
475.0,Santa Fe,Santa Fe,NM,93165,642.6,35.6619,-105.9819,87505 87507 87501 87502 87503 87509,POINT (-105.95472604758777 35.67853285686857)
476.0,Santa Monica,Los Angeles,CA,92828,4262.2,34.0235,-118.481,90401 90402 90403 90404 90405 90406 90407 90408 90409 90410 90411,POINT (-118.49414235274736 34.01341003914264)
477.0,Tracy,San Joaquin,CA,92792,1368.1,37.7269,-121.4523,95377 95376 95304,POINT (-121.4329241444869 37.73687917993748)
478.0,Roswell,Fulton,GA,92688,878.7,34.0391,-84.3513,30075 30076 30077,POINT (-84.35593578525521 34.037519350007884)
479.0,Plantation,Broward,FL,92212,1636.9,26.1259,-80.2617,33322 33323 33324 33325 33317 33313 33388 33318 33329 33337,POINT (-80.26138117530475 26.125864162563488)
480.0,Plantation,Broward,FL,92212,1636.9,26.1259,-80.2617,33322 33323 33324 33325 33317 33313 33388 33318 33329 33337,POINT (-82.3729681866296 27.06821329856182)
481.0,Kirkland,King,WA,91656,1987.4,47.697,-122.2057,98039 98033 98034 98083,POINT (-122.19517420169488 47.684420984929325)
482.0,Hoover,Jefferson,AL,91371,715.2,33.3763,-86.8068,35216 35226 35244 35242 35236 35260,POINT (-86.81902626973157 33.375442013379626)
483.0,Westminster,Orange,CA,91267,3510.1,33.7523,-117.9938,92655 92683 92684 92685,POINT (-117.99394816008075 33.75141641387933)
484.0,Lawton,Comanche,OK,91247,432.6,34.6175,-98.4202,73503 73505 73501 73507 73502 73506,POINT (-98.42315274004507 34.6004744447744)
485.0,San Leandro,Alameda,CA,91176,2642.2,37.7074,-122.1599,94578 94579 94577 94622,POINT (-122.16183284087799 37.70458036803784)
486.0,Norwalk,Western Connecticut,CT,90821,1532.2,41.1144,-73.4215,06854 06855 06850 06851 06853 06852 06856 06857 06858,POINT (-73.41974064575906 41.09404676693331)
487.0,O'Fallon,St. Charles,MO,90802,1149.4,38.785,-90.7175,63367 63366 63368,POINT (-90.708004005992 38.78435826528882)
488.0,Manteca,San Joaquin,CA,90678,1485.4,37.7927,-121.2264,95337 95336,POINT (-121.22452683646746 37.80225520503341)
489.0,Florence,Florence,SC,90419,657.1,34.178,-79.7898,29505 29506 29501 29502 29503 29504,POINT (-79.7801842066734 34.181155645186166)
490.0,Joplin,Jasper,MO,90384,522.6,37.0757,-94.5018,64804 64801 64802 64803,POINT (-94.50319915975535 37.08186040334712)
491.0,Chino,San Bernardino,CA,90279,1178.6,33.9836,-117.6654,91708 91710,POINT (-117.68688631164628 34.00691259090203)
492.0,Germantown,Montgomery,MD,90235,2045.4,39.1755,-77.2643,20876 20874 20875,POINT (-77.26035760333363 39.178298554898895)
493.0,Waukegan,Lake,IL,89751,1430.9,42.3698,-87.8716,60048 60087 60085 60079,POINT (-87.86807174381536 42.37092184763005)
494.0,Buckeye,Maricopa,AZ,89711,88.1,33.4314,-112.6429,85326 85340 85396,POINT (-112.58625055644268 33.412680086785684)
495.0,Town 'n' Country,Hillsborough,FL,89679,1554.8,28.0106,-82.5763,33635 33634 33615 33685,POINT (-82.57720531484323 28.010546736795217)
496.0,Clifton,Passaic,NJ,89460,3063.6,40.863,-74.1575,07014 07013 07012 07011 07015,POINT (-74.15723337602164 40.86404947697254)
497.0,Bloomington,Hennepin,MN,89436,995.2,44.8306,-93.3151,55420 55425 55431 55437 55435 55438,POINT (-93.31531075993459 44.8294145178826)
498.0,Mount Pleasant,Charleston,SC,88900,692.8,32.8537,-79.8203,29466 29464 29465,POINT (-79.86363688610793 32.82329555290273)
499.0,Missoula,Missoula,MT,88780,814.0,46.8751,-114.0214,59812 59808 59803 59802 59801,POINT (-114.00851914180356 46.868675616941374)
500.0,Newton,Middlesex,MA,88647,1919.9,42.3316,-71.2085,02464 02466 02461 02462 02468 02465 02467 02460 02458 02459 02456 02495,POINT (-71.20658113454378 42.33166410641365)
501.0,Livermore,Alameda,CA,88403,1284.6,37.6868,-121.7607,94550 94551,POINT (-121.7647273079329 37.69185578241454)
502.0,Palm Coast,Flagler,FL,88313,357.5,29.5389,-81.2457,32164 32137 32135 32142 32143,POINT (-81.21388956036702 29.571398536133632)
503.0,Avondale,Maricopa,AZ,88065,713.9,33.3873,-112.3235,85353 85329 85323 85392 85039,POINT (-112.32475603441614 33.42011460764443)
504.0,Muncie,Delaware,IN,88061,923.9,40.1989,-85.395,47306 47305 47303 47304 47302 47307,POINT (-85.39060602843958 40.197493345808184)
505.0,Conroe,Montgomery,TX,87930,458.7,30.3238,-95.4824,77384 77301 77303 77304 77305,POINT (-95.4715913195666 30.32352960745545)
506.0,Hawthorne,Los Angeles,CA,87863,5572.9,33.9147,-118.3476,90304 90250 90251 90310,POINT (-118.34795701273245 33.91466436586068)
507.0,Rapid City,Pennington,SD,87826,518.4,44.0716,-103.2204,57702 57703 57701,POINT (-103.23326134121797 44.07518882724298)
508.0,Lawrence,Essex,MA,87798,4891.8,42.7002,-71.1626,01843 01840 01841 01842,POINT (-71.16151844511084 42.70005814777508)
509.0,New Braunfels,Comal,TX,87549,750.6,29.6994,-98.1148,78132 78130 78131 78135,POINT (-98.1177152031875 29.704571611123487)
510.0,Citrus Heights,Sacramento,CA,87521,2377.0,38.6948,-121.288,95621 95610 95611,POINT (-121.2877302418509 38.69155293609946)
